id_place,coordonates,longitude,latitude,adress,id_city_name
I010040007,"45.96033, 5.35613",5.35613,45.96033,1 avenue de verdun,0
I010040012,"45.95939, 5.34018",5.34018,45.95939,435 Avenue de Mering,0
I010070003,"46.00574, 5.34821",5.34821,46.00574,Route de la gare,1
I010100005,"45.9105, 5.8138",5.8138,45.9105,118 rue du stade,2
I010140003,"46.27616584043702, 5.671198368072511",5.671198368072511,46.27616584043702,1 allee de l'embouteillou,3
I010140011,"46.27916, 5.67888",5.67888,46.27916,Av. Général ANDREA LETRAT,3
I010220001,"45.8738, 5.6866",5.6866,45.8738,Rue des Glières,4
I010250001,"46.31690300126088, 4.944794476032258",4.944794476032258,46.31690300126088,Route de Charlemagne,5
I010270001,"45.83444, 5.09361",5.09361,45.83444,Rue Centrale,6
I010270004,"45.83325116097398, 5.105153024196626",5.105153024196626,45.83325116097398,Rue du Stade,6
I010310005,"46.23888, 5.62083",5.62083,46.23888,111 Route de Groissiat,7
I010330017,"46.122325349616865, 5.814066231250764",5.814066231250764,46.12232534961687,21 Avenue du Stade,8
I010330019,"46.11444, 5.81638",5.81638,46.11444,5 rue Antoine Jacquet,8
I010340006,"45.7635, 5.6909",5.6909,45.7635,Chemin des Soupirs,9
I010430005,"45.83667, 5.01139",5.01139,45.83667,RN 84 Pré Mayeux,10
I010430006,"45.82342, 4.99409",4.99409,45.82342,Les Petites Combes,10
I010490004,"45.840438, 5.041648",5.041648,45.840438,Les Gravelles - Route de Gravelles,11
I010490006,"45.84694, 5.0375",5.0375,45.84694,270 Chemin du Grand Casset,11
I010530002,"46.20444, 5.23278",5.23278,46.20444,42 Rue Charles Robin,12
I010530009,"46.20667, 5.24667",5.24667,46.20667,48 Rue des Dîmes Bourg-en-Bresse,12
I010530014,"46.18736, 5.23547",5.23547,46.18736,Route de Seillon Les Vennes,12
I010530015,"46.20667, 5.26444",5.26444,46.20667,Chemin de la Chagne,12
I010530033,"46.21783, 5.22419",5.22419,46.21783,12 rue Barthelemy Thimonnie CENORD,12
I010530048,"46.21302, 5.22388",5.22388,46.21302,Rue Auguste Perrodin,12
I010530056,"46.22749, 5.235141",5.235141,46.22749,avenue de Marboz,12
I010650004,"46.20277, 5.15611",5.15611,46.20277,Chemin du Petit Corgenon,13
I010690001,"46.151222982765624, 5.255485475063325",5.255485475063325,46.15122298276562,Chemin des Buclanes,14
I010710001,"46.31583, 6.07",6.07,46.31583,Place du Vidolet,15
I010740004,"45.99247, 5.17079",5.17079,45.99247,"207, RUE DU STADE",16
I010780002,"46.1828, 5.9733",5.9733,46.1828,Rue de la Craz,17
I010930004,"46.12861, 4.96556",4.96556,46.12861,Avenue Charles De Gaulle,18
I010930010,"46.12806, 4.96028",4.96028,46.12806,Avenue François Mitterrand,18
I010930011,"46.12333, 4.95111",4.95111,46.12333,86 avenue des sports,18
I010980003,"45.79555, 5.68138",5.68138,45.79555,Rue du stade - Les Chandelles,19
I011080003,"46.37937499299676, 5.347318947315217",5.347318947315217,46.37937499299676,Route du Suran,20
I011120002,"46.1075, 5.55111",5.55111,46.1075,Le Village,21
I011170002,"45.73706191673933, 5.600090324878693",5.600090324878693,45.73706191673933,Crapeou,22
I011390001,"46.47410417674035, 5.147942304611207",5.147942304611207,46.47410417674035,La Varna,23
I011420010,"45.85256331218735, 5.086900591850282",5.086900591850282,45.85256331218735,Chemin de Marigneux,24
I011430009,"46.34555, 6.14388",6.14388,46.34555,Allée St Exupéry,25
I011430010,"46.34308, 6.14638",6.14638,46.34308,9 avenue du crêt d'eau,25
I011440001,"46.33622, 4.99057",4.99057,46.33622,La Ville,5
I011440002,"46.33805, 4.98681",4.98681,46.33805,CD 58,5
I011510006,"46.06222, 5.315",5.315,46.06222,La Dime,26
I011530010,"46.311737255566776, 6.047775149345399",6.047775149345399,46.311737255566776,547 route de mury,27
I011570001,"46.02111, 4.76528",4.76528,46.02111,Chemin du Stade,28
I011570004,"46.007852320006975, 4.771057343139539",4.771057343139539,46.007852320006975,Chemin des Granges,28
I011590008,"46.3325, 4.87889",4.87889,46.3325,Route des Dimes,29
I011600003,"46.26224123956778, 6.118631064891816",6.118631064891816,46.26224123956778,Avenue des Sports,30
I011600004,"46.26222, 6.11694",6.11694,46.26222,Avenue des Sports,30
I011630002,"46.37306, 5.17611",5.17611,46.37306,Le Bourg,31
I011630005,"46.37236453854643, 5.175311565399171",5.175311565399171,46.37236453854643,196 rue du stade,31
I011730002,"46.3369028439248, 6.058667600154878",6.058667600154878,46.3369028439248,Rue de paris,32
I011730003,"46.33472, 6.06555",6.06555,46.33472,Place du Turet,32
I011790002,"46.25167, 4.85306",4.85306,46.25167,Rue du Stade,33
I011840007,"46.1575, 5.41889",5.41889,46.1575,HAUTECOURT,34
I011850002,"45.97285635929359, 5.594967305660248",5.594967305660248,45.97285635929359,11 route des lesines,35
I011920001,"46.21861, 5.55889",5.55889,46.21861,Rue du Stade,36
I011950002,"46.21333, 5.31528",5.31528,46.21333,Allée des Sports,37
I011950009,,,,Allée des Sports,37
I011960002,"46.36997413734267, 5.114658772945405",5.114658772945405,46.36997413734267,Loëze,38
I012240003,"45.77972, 5.21139",5.21139,45.77972,Rue du stade,39
I012290005,"46.33694, 5.14083",5.14083,46.33694,Le Moulin Neuf - ROUTE D'ETREZ,40
I012310001,"46.36611, 4.89139",4.89139,46.36611,La Chassagne,41
I012370002,"46.21, 5.60472",5.60472,46.21,Route de Groissiat,42
I012460002,"46.22611, 5.04806",5.04806,46.22611,chemin du stade,43
I012490012,"45.82944, 4.96722",4.96722,45.82944,Avenue de St Maurice,44
I012500001,"45.97028, 4.81361",4.81361,45.97028,Picou,45
I031260001,"46.08636, 3.44798",3.44798,46.08636,1 place de la mairie,46
I031280001,"46.36738, 2.48096",2.48096,46.36738,rue de la République,47
I031380001,"46.2456, 3.62848",3.62848,46.2456,allée des sports,48
I031550007,"46.732416, 2.939063",2.939063,46.732416,7 rue des Ecoles,49
I031560004,"46.59116, 3.49243",3.49243,46.59116,Rue des Soeurs,50
I031650001,"46.06839, 3.65961",3.65961,46.06839,route de Vichy La Boulaire,51
I031650002,"46.060427357010795, 3.669913709163666",3.669913709163666,46.0604273570108,Lac des Moines,51
I031850040,"46.33145, 2.60514",2.60514,46.33145,rue des Faucheroux,52
I031850043,"46.34881629529905, 2.592636644840241",2.592636644840241,46.34881629529905,151 Avenue de la République,52
I031850044,"46.33053, 2.58834",2.58834,46.33053,rue Aristide Briand,52
I031860003,"46.3187, 2.94589",2.94589,46.3187,route de Montluçon,53
I031900009,"46.5665, 3.3228",3.3228,46.5665,Rue Félix MATHE,54
I032040003,"46.29538, 3.36554",3.36554,46.29538,Moulin du Pré,55
I032350001,"46.25945, 3.51589",3.51589,46.25945,5 chemin de Gondailly,56
I032360004,"46.20894, 3.4394",3.4394,46.20894,allée des sports La Prat,57
I032360005,"46.20595, 3.42283",3.42283,46.20595,allée du stade,57
I130270004,"43.88114, 4.866579",4.866579,43.88114,AV PIERRE DE COUBERTIN,58
I130280014,"43.1795, 5.6128",5.6128,43.1795,NOUVEAU PORT DE PLAISANCE,59
I130310003,"43.3807, 5.5998",5.5998,43.3807,CHEMIN DU GRAND PRE,60
I130320003,"43.5732, 5.34558",5.34558,43.5732,chemin des grappons,61
I130330003,"43.35597, 5.191663",5.191663,43.35597,Avenue de la Côte Bleue,62
I130350004,"43.68712, 5.03183",5.03183,43.68712,QUARTIER MAS DE BARREAU,63
I130370003,"43.5498, 5.1899",5.1899,43.5498,AV MARECHAL FOCH,64
I130370004,"43.5553, 5.19512",5.19512,43.5553,QUARTIER STE ROSALIE,64
I130390001,"43.4359, 4.9476",4.9476,43.4359,CHEMIN DE LA ROQUETTE,65
I130390002,"43.4446, 4.9435",4.9435,43.4446,BOULEVARD DE LA MEGLE,65
I130390026,"43.44448, 4.94069",4.94069,43.44448,210 chemin du mazet,65
I130400001,"43.45284, 5.55505",5.55505,43.45284,CHEMIN SAINT FRANCOIS,66
I130410008,"43.45999, 5.46067",5.46067,43.45999,QUARTIER FONTVENELLE,67
I130410009,"43.44372, 5.46964",5.46964,43.44372,RUE CHARLES PAURIOL,67
I130420011,"43.287865, 5.619745",5.619745,43.287865,244 Avenue Cesar Baldaccini,68
I130430006,"43.39231, 5.24041",5.24041,43.39231,AVENUE JEAN  JAURES,69
I130470017,"43.50139, 4.9952",4.9952,43.50139,LES HEURES CLAIRES,70
I130470019,"43.49737, 4.98478",4.98478,43.49737,ALLEE ANDRE LIORENS,70
I130470049,"43.52486, 4.95468",4.95468,43.52486,RESIDENCE LA BAYANNE BP20015,70
I130480004,"43.63545, 5.63684",5.63684,43.63545,QUARTIER FERRAGE,71
I130500003,"43.649447, 5.267167",5.267167,43.649447,Avenue Léo Lagrange,72
I130510001,"43.59214, 5.12057",5.12057,43.59214,AV FRANCOIS MITTERRAND,73
I130540014,"43.41022505839483, 5.20465287142708",5.20465287142708,43.41022505839483,Avenue du General de Gaulle,74
I130540015,"43.4052, 5.2244",5.2244,43.4052,Av Combattants d’Afrique du Nord,74
I130540020,"43.41445, 5.19915",5.19915,43.41445,Rue Edmond Rostand,74
I130540023,"43.410148, 5.24299",5.24299,43.410148,CHEMIN PLAINE NOTRE DAME,74
I130560003,"43.424287, 5.046597",5.046597,43.424287,Avenue JULIEN OLIVE,75
I130560004,"43.3986, 5.0419",5.0419,43.3986,allée pablo picasso,75
I130560006,"43.422878, 5.059064",5.059064,43.422878,ROUTE D ISTRES,75
I130560007,"43.41276, 5.048594",5.048594,43.41276,Avenue FRANCIS TURCAN,75
I130560009,"43.411553, 5.039114",5.039114,43.411553,BD DES RAYETTES,75
I130560010,"43.417238, 5.03224",5.03224,43.417238,Boulevard DES RAYETTES,75
I130560040,"43.422356, 5.057797",5.057797,43.422356,ROUTE D'ISTRES,75
I130600005,"43.47416, 5.49437",5.49437,43.47416,AVENUE JEAN PETIT,76
I130630005,"43.594, 5.0013",5.0013,43.594,QUARTIER DES MOLIERES,77
I130630006,"43.594, 5.0013",5.0013,43.594,AVENUE DE L OLYMPIE,77
I130630007,"43.5933, 5.0006",5.0006,43.5933,AVENUE DE L'OLYMPIE,77
I130630012,"43.5819, 5.0057",5.0057,43.5819,BOULEVARD  DU 14 JUILLET,77
I130630019,"43.59239, 5.01136",5.01136,43.59239,Chemin du creux,77
I130700001,"43.283265, 5.51189",5.51189,43.283265,LA PENNE SUR HUVEAUNE,78
I130710003,"43.42, 5.296",5.296,43.42,CHEMINE DE LA CAPELANE,79
I130710019,"43.4187, 5.3387",5.3387,43.4187,ALLEE DE L'ENSOLEIADO,79
I130710022,"43.4086, 5.3135",5.3135,43.4086,CHEMIN DE LA FERME,79
I130750002,"43.3533, 5.46891",5.46891,43.3533,rue colette besson,80
I130760007,"43.80991, 5.0091",5.0091,43.80991,AVENUE DU STADE,81
I130770005,"43.412493520280485, 4.995906651020051",4.995906651020051,43.412493520280485,Rue Francois Billoux,82
I130770006,"43.41854891692962, 4.992226660251618",4.992226660251618,43.41854891692962,Avenue de la Provence,82
I130770008,"43.4079, 4.9939",4.9939,43.4079,Rue Marcel Gaussorgues,82
I130780003,"43.39394, 4.79908",4.79908,43.39394,AVENUE GEORGES GABRIELLI,83
I130800001,"43.66067, 5.423",5.423,43.66067,AV DU STADE,84
I130810001,"43.49162567232234, 5.219675302505494",5.219675302505494,43.49162567232234,Avenue Victor Hugo,85
I130810003,"43.482744043282366, 5.2346071600914",5.2346071600914,43.482744043282366,AVENUE DU 8 MAI 1945,85
I130810011,"43.47658, 5.24534",5.24534,43.47658,LA PLANTADE MONTEE DU BELVEDERE,85
I130820002,"43.65379, 5.32461",5.32461,43.65379,ROUTE DE SAINT CANNAT,86
I130830002,"43.903416, 4.805201",4.805201,43.903416,PLACE DU MARCHE,87
I130840012,"43.71417, 5.30837",5.30837,43.71417,avenue de l’Europe Unie,88
I130860004,"43.346184, 5.602193",5.602193,43.346184,Avenue du Montvin,89
I130870011,"43.47659, 5.62354",5.62354,43.47659,AVENUE ROBERT BIENVENU,90
I130870012,"43.48, 5.6252",5.6252,43.48,AVENUE LOUIS ALLARD,90
I130910010,"43.61987, 5.29566",5.29566,43.61987,Bd Marcel Parraud,91
I130920009,"43.538747, 5.045674",5.045674,43.538747,quartier molleton,92
I130920017,"43.550803, 5.030026",5.030026,43.550803,ALLEE DES CIGOGNES,92
I130960004,"43.4529, 4.433",4.433,43.4529,RUE ROGER DELAGNES,93
I130970011,"43.64032, 4.80908",4.80908,43.64032,AVENUE DES ALPILLES,94
I130980004,"43.45408, 5.02088",5.02088,43.45408,BOULEVARD JEAN JAURES,95
I131000015,"43.7961, 4.8379",4.8379,43.7961,Avenue Plaisance du Touch,96
I131020002,"43.41455, 5.2418",5.2418,43.41455,BOULEVARD CHARLES DE GAULLE,97
I131030011,"43.6443, 5.1039",5.1039,43.6443,boulevard de l'europe,98
I131030012,"43.64881, 5.10018",5.10018,43.64881,RUE ROBERT SCHUMAN,98
I131030013,"43.6256, 5.105",5.105,43.6256,QUARTIER DE LURIAN,98
I131030014,"43.63505, 5.09473",5.09473,43.63505,RUE DU CAPITAINE GUIBERT,98
I131030016,"43.3854, 5.0528",5.0528,43.3854,RUE DE BOISGELIN,98
I131040005,"43.3344, 5.1077",5.1077,43.3344,31 AVENUE PIERRE MATRAJA,99
I131060005,"43.40361, 5.36337",5.36337,43.40361,Avenue du Docteur Edouard Sauze,100
I131070002,"43.43371, 5.43741",5.43741,43.43371,ROUTE DE GARDANNE,101
I131080001,"43.8094, 4.6622",4.6622,43.8094,BOULEVARD ALPHONSE DAUDET,102
I131080011,"43.80947, 4.66038",4.66038,43.80947,QUARTIER ST GEORGES,102
I131100002,"43.4466, 5.70011",5.70011,43.4466,1120 avenue marius joly,103
I131120003,"43.52571, 5.26023",5.26023,43.52571,AVENUE JULES ANDRAUD,104
I131120005,"43.53623, 5.24682",5.24682,43.53623,AVENUE ANTOINETTE BEAUCAIRE,104
I131130001,"43.59486, 5.49498",5.49498,43.59486,CHEMIN DU COLLET REDON,105
I131140004,"43.53479, 5.29482",5.29482,43.53479,LE PLATEAU,106
I131170003,"43.4207, 5.28317",5.28317,43.4207,QUARTIER LE REPOS,107
I131170005,"43.4586, 5.2439",5.2439,43.4586,AV DE LA RANGUE,107
I131170008,"43.4506, 5.2496",5.2496,43.4506,FONT SEGUGNE,107
I131170041,"43.44656395907805, 5.244461417241837",5.244461417241837,43.44656395907805,bd alfred casile,107
I192020002,"45.2222, 1.5825",1.5825,45.2222,LE BOURG,108
I192030002,"45.23666288, 1.73592792",1.73592792,45.23666288,Les Places,109
I192290009,"45.14298, 1.45297",1.45297,45.14298,le bourg,110
I192550007,"45.37754475, 1.69859985",1.69859985,45.37754475,,111
I192690007,"45.53961, 1.80085",1.80085,45.53961,les rivieres,112
I192740008,"45.19214, 1.49942",1.49942,45.19214,route du stade,113
I192750014,"45.5472, 2.31642",2.31642,45.5472,3 RUE DU STADE,114
I210030002,"47.356349, 5.038367",5.038367,47.356349,4 Rue des Fromentaux ZA les Grandes Varennes  AHUY,115
I210030003,"47.37832, 5.01543",5.01543,47.37832,Rue du puits de bois Le Charme aux lièvres,115
I210070001,"47.39227, 4.28662",4.28662,47.39227,,116
I210210002,"47.35127, 5.17822",5.17822,47.35127,Rue du Lac,117
I210210005,"47.34112, 5.18825",5.18825,47.34112,Rue de la Mairie Arc sur Tille,117
I210220001,"47.07161, 5.01591",5.01591,47.07161,5 ou 3 Rue de la Glacière,118
I210380002,"47.19793, 5.4024",5.4024,47.19793,Chemin de la Vigne Jeanneton,119
I210380003,"47.197818, 5.393872",5.393872,47.197818,Route de Flammerans,119
I210430004,"47.60506, 4.64279",4.64279,47.60506,rue du Stade Baigneux les Juifs,120
I210480001,"47.20845, 5.05589",5.05589,47.20845,Route de Broindon Barges,121
I210540014,"47.03217, 4.83975",4.83975,47.03217,Rue des Rôles,122
I210540015,"47.02796, 4.83463",4.83463,47.02796,Avenue de l'Aigue,122
I210540019,"47.03778, 4.83496",4.83496,47.03778,Rue Paul Delaborde,122
I210540037,"47.04155, 4.83595",4.83595,47.04155,Rue Edouard Joly,122
I210580002,"47.94565, 4.65096",4.65096,47.94565,Rue des Vergers,123
I210600001,"47.36747, 5.26596",5.26596,47.36747,Rue des Sports Belleneuve,124
I210870002,"47.10836, 4.65969",4.65969,47.10836,Allée de la Gare Bligny sur Ouche,125
I210920003,"47.12602, 4.78188",4.78188,47.12602,rue de la Montée Bouilland,126
I210920004,"47.13566, 4.77564",4.77564,47.13566,Route de Pont d'Ouche Bouilland,126
I211030003,"47.130331, 5.215519",5.215519,47.130331,Route de Nuits Saint Georges,127
I211050001,"47.30498, 5.18058",5.18058,47.30498,Rue des Ecoles,128
I211070001,"47.396, 5.10125",5.10125,47.396,Rue de la Mairie,129
I211270001,"47.47884, 5.07263",5.07263,47.47884,Rue des Meix Esprois,130
I211420003,"47.52205, 4.71505",4.71505,47.52205,Rue du Moulin à Vent,131
I211500001,"46.92542, 4.7371",4.7371,46.92542,Rue des Farges Le Pré Melin,132
I211630002,"47.55917, 5.27021",5.27021,47.55917,10 Rue La Chaussée,133
I211660001,"47.30007, 5.00923",5.00923,47.30007,30 bis Rue Ernest Renan,134
I211660004,"47.29772, 5.00341",5.00341,47.29772,7 Rue du Général Giraud,134
I211660005,"47.29795, 5.00483",5.00483,47.29795,9 Boulevard du Maréchal de Lattre de Tassigny,134
I211660006,"47.29188, 5.00583",5.00583,47.29188,6 Rue Edouard Herriot Chenove,134
I211660009,"47.29099, 5.01292",5.01292,47.29099,40 bis Rue du Stade Chenove,134
I211660011,"47.28868, 5.00708",5.00708,47.28868,Quartier des Grands Crus,134
I211660014,"47.29417, 5.02072",5.02072,47.29417,9 Rue des Frères Montgolfier,134
I211660015,"47.28981, 5.00906",5.00906,47.28981,7 Rue de Longvic,134
I211710001,"47.30147, 5.128354",5.128354,47.30147,Route de Dijon,135
I211710002,"47.303926, 5.127433",5.127433,47.303926,Place Pierre de Coubertin,135
I211710003,"47.299808, 5.140503",5.140503,47.299808,10 Rue des Myosotis,135
I211710007,"47.29649, 5.14072",5.14072,47.29649,Parc de La Saussaie,135
I211790002,"47.40943107087158, 5.123823881149293",5.123823881149293,47.40943107087158,Chemin de la Fontaine Mélot,136
I211860001,"47.10318, 4.921",4.921,47.10318,Parc Municipal,137
I211920001,"47.2942, 4.93947",4.93947,47.2942,Rue Eiffel,138
I212090001,"47.33208, 5.15381",5.15381,47.33208,Route de Bressey,139
I212100001,"47.24797, 4.58595",4.58595,47.24797,Créancey,140
I212130001,"47.27272, 5.12033",5.12033,47.27272,Rue Jossot,141
I212270003,"47.38751, 4.94269",4.94269,47.38751,Rue de l'Aviation,142
I212300001,"47.52061, 5.06606",5.06606,47.52061,Grand Rue,143
I212310001,"47.332, 5.05587",5.05587,47.332,17 Rue Léon Mauris,144
I212310004,"47.30712, 5.04559",5.04559,47.30712,2 Cours du Parc,144
I212310009,"47.30365, 5.01601",5.01601,47.30365,10 Rue Charles Oursel,144
I212310014,"47.339018941686966, 5.054491460323335",5.054491460323335,47.339018941686966,Boulevard Maréchal Joffre,144
I212310023,"47.32417, 4.9987",4.9987,47.32417,Avenue du Lac,144
I143380001,"49.29655, -0.06381",-0.06381,49.29655,rte de la vallee,145
I143410016,"49.14803, -0.348776",-0.348776,49.14803,chemin du val,146
I143650001,"49.30027, -0.32534",-0.32534,49.30027,rue du stade,147
I143660004,"49.13795, 0.2244",0.2244,49.13795,Chemin Saint-Hyppolite,148
I143660021,"49.16163021329339, 0.21754467485152418",0.2175446748515241,49.16163021329339,r paul cornu,149
I143660028,"49.15741, 0.22154",0.22154,49.15741,RUE DE LA TOUQUES,149
I143660029,"49.145654, 0.249294",0.249294,49.145654,RUE ROGER AINI,149
I143700001,"49.24119, -0.87933",-0.87933,49.24119,r de la fosse frandemiche,150
I143830003,"49.16292, -0.40069",-0.40069,49.16292,14 Longue Vue des Architectes,151
I144560006,"49.11183, -0.17206",-0.17206,49.11183,r du traite de rome,152
I144750001,"49.12193, -0.56524",-0.56524,49.12193,rue des écoles,153
I145140001,"49.2858835011748, 0.17718493932989077",0.1771849393298907,49.2858835011748,r de la vicomte,154
I145150007,"49.34523314240323, -0.7592403889793786",-0.7592403889793786,49.34523314240323,RUE DU 11 NOVEMBRE,155
I145560003,"49.11947, -0.38021",-0.38021,49.11947,rue de Stockholm,156
I145570003,"49.33976, 0.09338",0.09338,49.33976,Avenue Michel d'Ornano,157
I145620001,"49.32362, -0.39767",-0.39767,49.32362,Route de Tailleville,158
I146100004,"49.18027, -0.49817",-0.49817,49.18027,RUE NOUVELLE,159
I146540003,"49.01573, -0.03028",-0.03028,49.01573,rue des sports,160
I146750004,"49.13153, -0.29084",-0.29084,49.13153,rue Pierre de Coubertin,161
I146890004,"48.98022, -0.47452",-0.47452,48.98022,1 boulevard des champs Sainte-Catherine,162
I146990002,"49.34716124832903, 0.10357707733419375",0.1035770773341937,49.34716124832903,av charles de gaulle,163
I147120002,"49.18154, -0.18896",-0.18896,49.18154,rue du bois,164
I147150002,"49.35914, 0.09519",0.09519,49.35914,avenue Barnstaple,165
I147260011,"48.856743872192965, -0.6744718552727136",-0.6744718552727136,48.856743872192965,rte de lassy,166
I150450003,"44.85597, 3.00658",3.00658,44.85597,avenue du docteur mallet parc de la piscine,167
I150720002,"45.02167, 2.38752",2.38752,45.02167,Le Bourg,168
I150900003,"44.79019, 2.45806",2.45806,44.79019,rue du Parc des Sports,169
I103870017,"48.27003, 4.0713",4.0713,48.27003,Complexe henri Terré,170
I110050007,"43.18792985381606, 2.25076362490654",2.25076362490654,43.18792985381606,avenue du stade,171
I110090001,"43.255155667657164, 2.176375240087509",2.176375240087509,43.25515566765717,Parc municipal,172
I110090003,"43.24650107144827, 2.176505327224732",2.176505327224732,43.24650107144827,Chemin du stade Plaine d'ALZONNE,172
I110150003,"42.95313, 2.37105",2.37105,42.95313,L'escampadou,173
I110210012,"42.80143, 2.23005",2.23005,42.80143,Rue des Jardins Le Parc-Ouest,174
I110330002,"43.20067, 1.74811",1.74811,43.20067,rue du 8 mai 1945,175
I110340001,"43.12287, 2.08847",2.08847,43.12287,av du lac,176
I110480001,"43.14757, 2.78797",2.78797,43.14757,rue du moulin,177
I110490002,"43.23613, 2.1054",2.1054,43.23613,route de Fanjeaux,178
I110680002,"43.186631262378796, 2.558237314224243",2.558237314224243,43.1866312623788,Le stade,179
I110690028,"43.21739, 2.36581",2.36581,43.21739,10 avenue Général Sarrail,180
I110690038,"43.2185, 2.314",2.314,43.2185,Route de Bram,180
I110690039,"43.19769, 2.32125",2.32125,43.19769,Maquens,180
I110690042,"43.21816, 2.33835",2.33835,43.21816,Rue Auguste Delaune,180
I110690055,"43.2231, 2.37369",2.37369,43.2231,la Fajeolle,180
I110690075,"43.20656, 2.34809",2.34809,43.20656,rue Marcelau Perrutel BP 585,180
I110690077,"43.22524, 2.35238",2.35238,43.22524,2 r du moulin de la seigne,180
I110760002,"43.32088, 1.96274",1.96274,43.32088,Rue Anatole France,181
I110760005,"43.31946, 1.96378",1.96378,43.31946,Chemin de la cruzolle Pont rouge,181
I110760012,"43.31609, 1.94833",1.94833,43.31609,Avenue Georges Pompidou,181
I110840004,"43.2271, 2.25667",2.25667,43.2271,av des platanes,182
I110880007,"43.17981, 2.36997",2.36997,43.17981,av du stade,183
I110990001,"43.26925, 2.39807",2.39807,43.26925,av felix roquefort,184
I111060005,"43.23186, 3.05114",3.05114,43.23186,Avenue du Général de Gaulle,185
I111060006,"43.23455, 3.07281",3.07281,43.23455,Route de salles,185
I111160003,"43.25223, 3.00157",3.00157,43.25223,Route de Capestang,186
I120560001,"44.27535, 2.43459",2.43459,44.27535,Route de la Vallée du Viaur,187
I120680001,"44.34656, 2.3333",2.3333,44.34656,Le bourg,188
I120730002,"44.23149, 2.56964",2.56964,44.23149,PLACE DU STADE,189
I120890005,"44.5627, 2.24308",2.24308,44.5627,STADE CAMILLE GUIBERT,190
I120960004,"44.52155, 2.76836",2.76836,44.52155,LE FOIRAIL,191
I060110009,"43.71138889, 7.33583333",7.33583333,43.71138889,6 Avenue Edith CAVELL Beaulieu sur Mer,192
I060120009,"43.746744, 7.416768",7.416768,43.746744,Avenue des Anciens Combattants d'Afrique du Nord Le Devens,193
I060160014,"44.08882, 6.9691",6.9691,44.08882,La Sagne,194
I060180011,"43.62166667, 7.06361111",7.06361111,43.62166667,Route des Dollines/ Rond Point de l'Eganaude BIOT,195
I060220005,"43.82559, 7.12267",7.12267,43.82559,Rue du Noyer Bouyon,196
I060230001,"43.94218, 7.5167",7.5167,43.94218,545 Route des vacances,197
I060270010,"43.67194444, 7.14916667",7.14916667,43.67194444,Avenue Marcel Pagnol,198
I060290044,"43.5512, 6.95866",6.95866,43.5512,99 Avenue MAURICE CHEVALIER Cannes La Bocca,199
I060290055,"43.5425, 7.0375",7.0375,43.5425,50 avenue de lérins,199
I060290062,"43.54666667, 6.94888889",6.94888889,43.54666667,6 Avenue Gaston de Fontmichel,199
I060290063,"43.55027778, 6.96333333",6.96333333,43.55027778,1 Avenue Pierre de Coubertin Cannes La Bocca,199
I060300001,"43.56972222, 6.985",6.985,43.56972222,730 Avenue Georges Pompidou,200
I060330008,"43.76805556, 7.19583333",7.19583333,43.76805556,Boulevard de la Colle Belle,201
I060330011,"43.76777778, 7.20111111",7.20111111,43.76777778,Route de la Grave,201
I060420004,"43.99333333, 7.14583333",7.14583333,43.99333333,avenue des vallières,202
I060440005,"43.68509, 7.10109",7.10109,43.68509,Chemin de l'Escourt,203
I060440011,"43.78, 7.50861111",7.50861111,43.78,Bd Honoré Teisseire La Colle sur Loup,203
I060440014,,,,4 boulevard alex roubert,203
I060460001,"43.76539, 7.22225",7.22225,43.76539,RD 414 Fort Casal - Quartier du Redier,204
I103230006,"48.52446, 3.72983",3.72983,48.52446,rue magenta,205
I103230007,"48.51807, 3.71742",3.71742,48.51807,allée montesquieu,205
I103230008,"48.51945, 3.72173",3.72173,48.51945,3 rue des champs elysées,205
I103620002,"48.2946, 4.02687",4.02687,48.2946,11 Rue de la Maladière,206
I130190007,"43.42646, 5.36437",5.36437,43.42646,Route Départementale 543,207
I130210003,"43.33872, 5.15687",5.15687,43.33872,QUARTIER DE LA LOGE,208
I130220012,"43.23138, 5.53316",5.53316,43.23138,avenue des Gorguettes,209
I130260002,"43.39896, 5.13728",5.13728,43.39896,161 avenue du bolmon,210
I130260003,"43.3812, 5.1665",5.1665,43.3812,Rue du Grand Jas,210
I130260006,"43.3793, 5.1728",5.1728,43.3793,Avenue des Anciens Combattants,210
I130260013,"43.3993, 5.1147",5.1147,43.3993,Avenue Saint Médard,210
I130280004,"43.1851, 5.6019",5.6019,43.1851,AV JULES FERRY,59
I130410007,"43.45689, 5.47416",5.47416,43.45689,AVENUE  LEO LAGRANGE,67
I130470006,"43.592, 4.934",4.934,43.592,AVENUE DES GINESTES ENTRESSEN,70
I130470008,"43.5172, 4.9898",4.9898,43.5172,ZAC DES SALLES,70
I130470048,"43.5081, 4.98923",4.98923,43.5081,BD EDOUARD GUIZONNIER,70
I131170006,"43.4427, 5.248",5.248,43.4427,AV PAUL GUIGOU,107
I131170010,"43.4261, 5.273",5.273,43.4261,AV RHIN ET DANUBE,107
I132030014,"43.3093, 5.38389",5.38389,43.3093,68 RUE CAVAIGNAC,211
I132040014,"43.30065, 5.40135",5.40135,43.30065,20 BOULEVARD FRANCOISE DUPARC,212
I132070016,"43.28907, 5.35892",5.35892,43.28907,1 PLACE DU 4 SEPTEMBRE,213
I132070019,"43.28544, 5.36928",5.36928,43.28544,89 BOULEVARD TELLENE,213
I132070021,"43.28966, 5.36745",5.36745,43.28966,39 RUE D'ENDOUME Ruedes Lys,213
I132080024,"43.26622, 5.39105",5.39105,43.26622,131 AVENUE DE MAZARGUES,214
I132080033,"43.22936, 5.35076",5.35076,43.22936,CALLANQUE SAMENA MADRAGUE DE MONTREDON,214
I130050013,"43.28626, 5.58337",5.58337,43.28626,AVENUE ROBESPIERRE,215
I130050033,"43.281388, 5.549454",5.549454,43.281388,LE CHARREL,215
I130050034,"43.293629, 5.56236",5.56236,43.293629,avenue simon lagunas,215
I130050035,"43.292281, 5.558086",5.558086,43.292281,Traverse de la Vallée,215
I130070004,"43.36989, 5.64571",5.64571,43.36989,AV DES ARTAUDS,216
I130140006,"43.4873, 5.1722",5.1722,43.4873,AVENUE PAUL LANGEVIN,217
I130140007,"43.489771224489175, 5.158596038818359",5.158596038818359,43.489771224489175,Rue du 19 Mars 1962,217
I130140020,"43.4937, 5.1667",5.1667,43.4937,BOULEVARD HENRI VALLON,217
I130150001,"43.45362, 5.41836",5.41836,43.45362,CHEMIN PEYRE FUGUETTE,218
I130150007,"43.43146, 5.40038",5.40038,43.43146,RN8  LA PETITE BASTIDE,218
I130160004,"43.39392, 5.60167",5.60167,43.39392,CHEMIN DE CEINTURE,219
I130180007,"43.8598, 4.9527",4.9527,43.8598,Chemin des Courses,220
I130190006,"43.44661232282995, 5.349572002887726",5.349572002887726,43.44661232282995,Avenue Raymond Martin,207
I010470002,"45.84944, 5.24888",5.24888,45.84944,Route de Lagnieu,221
I010530016,"46.21243, 5.22554",5.22554,46.21243,Rue Docteur Duby Bourg-en-Bresse,12
I010530018,"46.19429, 5.22817",5.22817,46.19429,Rue Charles Démia,12
I010530063,"46.19596, 5.21292",5.21292,46.19596,Passage de l' école du Peloux,12
I010580004,"45.64805, 5.62166",5.62166,45.64805,Le Village,222
I010720007,"46.18502, 5.32192",5.32192,46.18502,route de jasseron,223
I010790001,"45.90700964491364, 5.679446160793305",5.679446160793305,45.90700964491364,Rue du Stade,224
I010900001,"46.035699, 5.200133",5.200133,46.035699,Chemin du Village A proximité de l'Ecole Primaire,225
I010960001,"46.2025, 5.05611",5.05611,46.2025,Route de Mézèriat-impasse du stade,226
I010990003,"45.89222, 5.2575",5.2575,45.89222,Route de St Julie,227
I011020002,"46.3825, 4.95611",4.95611,46.3825,36 route de Dommartin,228
I011050003,"45.91806, 4.88444",4.88444,45.91806,337 Route de Lyon / Chemin du petit bois,229
I011300001,"46.31, 5.1674",5.1674,46.31,Les Pochons,230
I011340003,"46.27556, 4.89833",4.89833,46.27556,La Carrière,231
I012320001,"46.345, 5.25972",5.25972,46.345,226 AVENUE DES SPORTS,232
I012410001,"46.24805, 5.34777",5.34777,46.24805,Chemin du stade,233
I012440011,"45.90667, 5.18833",5.18833,45.90667,19 avenue du docteur berthier,234
I012440013,"45.9081548863867, 5.18804132938385",5.18804132938385,45.9081548863867,5 avenue du docteur berthier,234
I012490003,"45.82472, 4.94944",4.94944,45.82472,,44
I012490010,"45.82361, 4.94583",4.94583,45.82361,Chemin de La Chanal,44
I012540002,"46.16611, 5.2875",5.2875,46.16611,La Craz,235
I012580002,"46.09389, 4.77389",4.77389,46.09389,Le Grand Rivolet,236
I012630007,"46.075, 4.765",4.765,46.075,Route de Lyon,237
I012650003,"46.18388, 5.57472",5.57472,46.18388,Avenue François Prospère de Douglas,238
I012690011,"46.15175811880009, 5.600744783878326",5.600744783878326,46.15175811880009,Chemin du camping,239
I012720001,"46.15333, 5.01056",5.01056,46.15333,ROUTE DE ROMANS,240
I012830007,"46.26072, 5.64753",5.64753,46.26072,55 Rue Jules Michelet,241
I012830008,"46.25448572179765, 5.6438639760017395",5.64386397600174,46.25448572179765,125 Cours de Verdun,241
I012880001,"46.18595, 5.92091",5.92091,46.18595,route du peron,242
I012890002,"46.17694, 5.20861",5.20861,46.17694,Allée de la Grange Magnien,243
I012890003,"46.17556, 5.20806",5.20806,46.17556,Allée de la Grange Magnien,243
I013010003,"46.25083, 5.12527",5.12527,46.25083,Champs Roux,244
I013030005,"46.08757161953528, 5.404852330684663",5.404852330684663,46.08757161953528,Les Terres d' Ain,245
I013050001,"46.43140940962044, 4.946564733982087",4.946564733982087,46.43140940962044,Chemin des Nivres,246
I013050007,"46.43139, 4.94417",4.94417,46.43139,Avenue verchère,246
I013060001,"46.26417, 4.88389",4.88389,46.26417,Avenue des Sports,247
I013130001,"46.26694, 6.07611",6.07611,46.26694,1168 Route du Stade VESEGNIN,248
I013330001,"45.92972, 4.95722",4.95722,45.92972,Allee des Sports,249
I013330002,"45.924110222359715, 4.943903982639314",4.943903982639314,45.92411022235972,Route de Neuville,249
I013360001,"46.15278, 5.15083",5.15083,46.15278,164 chemin du stade,250
I013440001,"46.20306, 5.19306",5.19306,46.20306,289 Allée des Sports,251
I013480001,"46.17833, 4.80889",4.80889,46.17833,Rue des Sports,252
I013540001,"46.24472, 6.03027",6.03027,46.24472,Rue des Ecoles Les Hautins,253
I013540002,"46.23944, 6.02333",6.02333,46.23944,Place des Fêtes,253
I013540009,"46.25, 6.02833",6.02833,46.25,Z.A. DE L'ALLONDON,253
I013630004,"46.02715, 5.38572",5.38572,46.02715,Avenue des sports CD n°17,254
I013650002,"46.26694, 4.91166",4.91166,46.26694,Croyat,255
I013760006,"45.82528, 4.98639",4.98639,45.82528,ALLEE DU FORUM,256
I013780003,"45.80917, 5.19056",5.19056,45.80917,Chemin du Stade,257
I013780005,"45.82, 5.19944",5.19944,45.82,2 route de Port Galland,257
I013810004,"46.06222, 5.14389",5.14389,46.06222,Route de St Paul de varax,258
I013840004,"45.93778, 5.42833",5.42833,45.93778,La Pièce,259
I013850001,"46.19339, 5.16663",5.16663,46.19339,660 route de st remy,260
I013880001,"46.46222, 5.08667",5.08667,46.46222,Rue du Stade,261
I013880002,"46.45861, 5.07806",5.07806,46.45861,Rue de la gendarmerie,261
I013900002,"45.82861, 5.28722",5.28722,45.82861,1558 Rue Claires Fontaines,262
I013960003,"45.863375958196535, 5.3948745131492615",5.3948745131492615,45.863375958196535,Le Tiodet,263
I014010003,"46.25167, 5.99389",5.99389,46.25167,Route de Thoiry,264
I014050002,"46.13222971963329, 5.163356959819795",5.163356959819795,46.13222971963329,35 rue du noyer,265
I014180001,"45.812163, 5.019671",5.019671,45.812163,Chemin du Stade,266
I014190003,"46.23472, 5.98333",5.98333,46.23472,Rue du Stade,267
I014220002,"46.14194, 5.32028",5.32028,46.14194,Route de journans,268
I014230001,"45.96028, 4.82139",4.82139,45.96028,Route de St - Euphémie,269
I014260001,"46.26694, 5.36222",5.36222,46.26694,Route de Meillonnas La Croix,270
I014270007,"45.94729, 4.74907",4.74907,45.94729,Allée des Filiéristes,271
I014270012,"45.93639, 4.78528",4.78528,45.93639,308 Rue de la Sidoine,271
I014300001,"46.03667, 5.31528",5.31528,46.03667,Les Brotteaux,272
I014430007,"46.00056, 5.02583",5.02583,46.00056,Rue des Dombes,273
I014470003,"46.18361, 5.37944",5.37944,46.18361,,274
I014490001,"45.98889, 5.27278",5.27278,45.98889,route principale,275
I014510001,"46.25055, 5.20472",5.20472,46.25055,Chemin des Rippes  Chilleys,276
I014510002,"46.25028, 5.20417",5.20417,46.25028,Chemin du Lavoura,276
I014510007,"46.23333, 5.20639",5.20639,46.23333,39 Chemin Liavoles,276
I014570002,"46.22083, 4.98694",4.98694,46.22083,Rue de Verdemont,277
I020180002,"49.51091, 3.45108",3.45108,49.51091,r jean zay,278
I020280001,"49.57149, 3.68641",3.68641,49.57149,Rue du Château d'Eau,279
I020370001,"49.60678, 3.61365",3.61365,49.60678,r de la piscine,280
I020570001,"49.99515, 3.31508",3.31508,49.99515,9 r de ponchaux,281
I020590005,"49.64235, 3.34083",3.34083,49.64235,r de la fosse,282
I020640002,"49.36258, 3.33716",3.33716,49.36258,2 r leon blum,283
I020950001,"49.99144, 3.46061",3.46061,49.99144,che des dames,284
I021240001,"49.74783, 3.37745",3.37745,49.74783,Rue des Ponts,285
I021310002,"49.38809, 3.39325",3.39325,49.38809,Rue de la Libération,286
I021340001,"49.90977, 4.06256",4.06256,49.90977,Boulevard Ornano,287
I021410006,"49.9677, 3.91953",3.91953,49.9677,Chemin du stade,288
I021410008,"49.97019, 3.92322",3.92322,49.97019,Route Nationale,288
I021570001,"49.58809, 3.65787",3.65787,49.58809,r saint-just,289
I021630003,"48.97564, 3.27805",3.27805,48.97564,Route de paris,290
I021650002,"49.65208, 3.38224",3.38224,49.65208,1 r jules ferry,291
I021680001,"49.03290159189092, 3.4046110510826115",3.4046110510826115,49.03290159189092,av de montmirail,292
I021680002,"49.0601, 3.38513",3.38513,49.0601,r de l'artisanat,292
I021680013,"49.05402, 3.3926",3.3926,49.05402,Rue du Buisson,292
I021680017,"49.04066, 3.39338",3.39338,49.04066,res la vignotte,292
I021730005,"49.6155, 3.22371",3.22371,49.6155,r d'eure et loir,293
I021730019,"49.6256, 3.22946",3.22946,49.6256,r geo andre,293
I021740001,"49.47853, 3.52208",3.52208,49.47853,Rue Saint Pierre,294
I021820001,"49.81852, 3.73737",3.73737,49.81852,Rue de Lemé,295
I021960001,"49.54742, 3.5713",3.5713,49.54742,Rue Pasteur,296
I022170003,"49.51784, 3.31328",3.31328,49.51784,che du val serain,297
I022310001,"49.64183, 3.51502",3.51502,49.64183,Grande Place,298
I022310003,"49.64807, 3.52019",3.52019,49.64807,Les Cheneaux,298
I022370001,"49.7007, 3.62552",3.62552,49.7007,2 Chemin Clos Pinotte,299
I022370004,"49.69798, 3.62381",3.62381,49.69798,Avenue des Ecoles,299
I022380001,"49.61342, 3.51485",3.51485,49.61342,rue des paturelles,300
I022450004,"49.40412, 3.3234",3.3234,49.40412,r de la mairie,301
I022450005,"49.40113, 3.33191",3.33191,49.40113,13 Avenue François Mitterand,301
I022860001,"49.98435, 3.75453",3.75453,49.98435,Le Gravier Maubert,302
I023030001,"49.86946, 3.25382",3.25382,49.86946,22 Rue Jean de la Fontaine,303
I023040012,"49.66554, 3.36726",3.36726,49.66554,Rue Vauban,304
I023040015,"49.665044, 3.360845",3.360845,49.665044,r vauban,304
I023050013,"49.20593, 3.51642",3.51642,49.20593,r du stade,305
I023050014,"49.19797, 3.50656",3.50656,49.19797,6 pl de wertingen,305
I023060001,"49.73735, 3.5608",3.5608,49.73735,Rue d'Enfer,306
I023070004,"49.18185, 3.12601",3.12601,49.18185,r de montolon,307
I023120003,"50.00654, 3.92084",3.92084,50.00654,Route Nationale,308
I023340003,"49.94892, 3.42068",3.42068,49.94892,Rue leo lagrange,309
I023400024,"49.82999, 3.28916",3.28916,49.82999,Rue de Picardie,310
I023550002,"49.89129, 3.24813",3.24813,49.89129,r de la forge,311
I023600001,"49.43886, 3.96451",3.96451,49.43886,Rue du Moulin,312
I023610007,"49.90369, 3.63822",3.63822,49.90369,79 av des lilas,313
I023710002,"49.84461, 3.31726",3.31726,49.84461,Rue de Chgampagne,314
I023710003,"49.83827, 3.32244",3.32244,49.83827,Avenue Pierre Choquart,314
I023810013,"49.92218, 4.09256",4.09256,49.92218,r du petit taillis,315
I023810014,"49.92956, 4.08096",4.08096,49.92956,r chanzy,315
I023830001,"49.84753, 3.3669",3.3669,49.84753,Place Bellevue,316
I023890001,"49.08601, 3.53449",3.53449,49.08601,r du port,317
I023970001,"49.72336, 3.23281",3.23281,49.72336,Place de la Mairie,318
I024080008,"49.57363, 3.62741",3.62741,49.57363,rue Joseph Cavrois,319
I024080010,"49.55835, 3.61283",3.61283,49.55835,Avenue de la République,319
I024080029,"49.56757, 3.64574",3.64574,49.56757,Rue saint-exupery,319
I024080034,"49.56576, 3.65111",3.65111,49.56576,74 av charles de gaulle,319
I024080044,"49.57688, 3.64938",3.64938,49.57688,Rue diderot,319
I024080049,"49.55803794505846, 3.6323976516723637",3.632397651672364,49.55803794505846,Rue Marcel Levindrey,319
I024080056,"49.55831964335654, 3.6332642523904366",3.6332642523904366,49.55831964335654,Rue Marcel Levindrey,319
I024810002,"49.82798, 3.35598",3.35598,49.82798,3 rue des chêne de Cambrie,320
I024970001,"49.54676, 3.57237",3.57237,49.54676,r du clos piot,321
I024980001,"49.53957, 3.81451",3.81451,49.53957,Chemin de la cendrière,322
I025140003,"49.37725, 3.09678",3.09678,49.37725,rte de tannieres,323
I025320001,"49.74454, 3.36395",3.36395,49.74454,Rue Camille Desmoulins,324
I025490001,"49.82697, 3.33312",3.33312,49.82697,Place de la Mairie,325
I025530002,"49.56492, 4.05892",4.05892,49.56492,Route des Ardennes,326
I025550001,"48.96751921623945, 3.3169234357774258",3.3169234357774258,48.96751921623945,r lambin,327
I025580007,"50.00886, 3.78417",3.78417,50.00886,Rue de la Gare,328
I025600001,"49.69931, 3.46165",3.46165,49.69931,Rue de l'Ecole / Ruelle du Blond,329
I025710001,"49.86585, 3.30565",3.30565,49.86585,Rue Fleming,330
I025710002,"49.86534, 3.30335",3.30335,49.86534,Rue Fleming,330
I025750006,"49.84313, 3.48533",3.48533,49.84313,Rue du moulin,331
I025800003,"49.21056, 3.37047",3.37047,49.21056,Route de Beugmeux,332
I025930001,"49.3978, 3.2967",3.2967,49.3978,r du petit longpont,333
I026190001,"49.54516, 3.41008",3.41008,49.54516,pl saint norbert,334
I026800006,"49.59162, 3.37687",3.37687,49.59162,pl charles de gaulle,335
I026910008,"49.8604, 3.27485",3.27485,49.8604,Rue Henriette Cabot,336
I026910009,"49.84855, 3.29379",3.29379,49.84855,Avenue de Remicourt,336
I026910010,"49.86594, 3.2783",3.2783,49.86594,11 Rue des Anciens Combattants AFN,336
I026910015,"49.85332, 3.27804",3.27804,49.85332,Place du 87ème Régiment,336
I026910023,"49.86086, 3.30421",3.30421,49.86086,rue Laplace ZUP Europe,336
I026910032,"49.85161, 3.28183",3.28183,49.85161,Rue des Glacis,336
I027060003,"49.33368, 3.36024",3.36024,49.33368,r d'acy,337
I027190002,"49.59542, 3.24889",3.24889,49.59542,Rue Achille Chemin,338
I027200001,"49.56581, 3.89641",3.89641,49.56581,Rue du vieux moulins,339
I027220011,"49.395044054836035, 3.3259106799960136",3.3259106799960136,49.39504405483604,avenue du mail,340
I027220021,"49.387, 3.32576",3.32576,49.387,r bara,340
I027220053,"49.367995782713635, 3.3258276699360283",3.3258276699360283,49.36799578271364,11 et 13 avenue Salvador Allende,340
I027380008,"49.67085, 3.29864",3.29864,49.67085,r du moulin,341
I027380018,"49.66164, 3.28317",3.28317,49.66164,r vedrines,341
I027380019,"49.65894, 3.31631",3.31631,49.65894,bd des deportes,341
I027410001,"49.82726, 3.46846",3.46846,49.82726,Chemin de la prairie,342
I027530001,"49.958, 3.61167",3.61167,49.958,r georges lefevre,343
I027800003,"49.3655, 3.40419",3.40419,49.3655,Rue de l'Oiselet,344
I027890002,"49.8372, 3.91656",3.91656,49.8372,Rue Marc lescarbot Bout de la grosse Tête,345
I027890006,"49.83697, 3.91537",3.91537,49.83697,Place Behaine La Briquetterie,345
I027900002,"49.66845, 3.78261",3.78261,49.66845,Rue du Fort,346
I028050003,"49.37668, 3.36324",3.36324,49.37668,Rue wilfrid lanoiselle,347
I028100019,"49.25786, 3.08767",3.08767,49.25786,r alfred juneaux,348
I028100020,"49.25849, 3.08458",3.08458,49.25849,11bis av de compiegne,348
I028200004,"49.62965, 3.25194",3.25194,49.62965,rue racine,349
I030010002,"46.1025, 3.44023",3.44023,46.1025,avenue des graviers,350
I030130001,"46.58519, 3.30698",3.30698,46.58519,2 avenue des isles,351
I030140001,"46.33218, 3.97982",3.97982,46.33218,Le Bourg,352
I030180003,"46.24409, 3.26876",3.26876,46.24409,Ile des Grottes,353
I030230005,"46.11465, 3.42109",3.42109,46.11465,17 rue du stade,354
I030230008,"46.11909, 3.3993",3.3993,46.11909,13 rue Jean Ferlot,354
I030230009,"46.11624, 3.42251",3.42251,46.11624,chemin de halage,354
I030230012,"46.11891, 3.415",3.415,46.11891,2 avenue de la République,354
I030230014,"46.13537, 3.40284",3.40284,46.13537,1 route de charmeil,354
I030250004,"46.43885521751555, 3.364501297473908",3.364501297473908,46.43885521751555,12 rue René FALLET,355
I030360007,"46.58325155025136, 3.0499210964231254",3.0499210964231254,46.58325155025136,Boulevard Jean BIGNON,356
I030450001,"46.06667, 3.50904",3.50904,46.06667,Les Loyons,357
I030600002,"46.16318, 3.39045",3.39045,46.16318,11 rue Brenat de Saint Véran,358
I030630003,"46.43826, 3.9806",3.9806,46.43826,,359
I030650002,"46.4071, 3.31145",3.31145,46.4071,Le Bourg,360
I030730003,"46.48769771095981, 3.313443819807831",3.313443819807831,46.48769771095981,Le Bourg,361
I030740001,"46.61657, 3.55472",3.55472,46.61657,Route de Paray le Frésil,362
I030820004,"46.29132, 2.73295",2.73295,46.29132,8 Boulevard du Général De Gaulle,363
I030820009,"46.28841, 2.72207",2.72207,46.28841,Avenue Président ALLENDE,363
I030840001,"46.48277, 2.82848",2.82848,46.48277,2 route de cérilly,364
I030940001,"46.15677, 3.43611",3.43611,46.15677,Les Arloings,365
I030950004,"46.13582, 3.44743",3.44743,46.13582,avenue de l'Europe,366
I030950005,"46.13467, 3.46779",3.46779,46.13467,2 rue emile guillaumin,366
I030950006,"46.13132, 3.44703",3.44703,46.13132,rue Mont Béton,366
I030980003,"46.3581, 2.61866",2.61866,46.3581,rue Anne Franck,367
I031010012,"46.36403, 2.53093",2.53093,46.36403,rue du 8 mai 1945,368
I031010017,"46.357756, 2.545116",2.545116,46.357756,Avenue Marx Dormoy,368
I031010024,"46.362392377766625, 2.5318443775177006",2.5318443775177006,46.36239237776663,35 boulevard victor hugo,368
I031020001,"46.51611, 3.68324",3.68324,46.51611,Place de l'Ile,369
I031020004,"46.51967, 3.66947",3.66947,46.51967,85 rue du bois des millets,369
I031030007,"46.35425, 3.783989",3.783989,46.35425,11 rue Emile Guillaumin,370
I031040001,"46.33166, 2.79962",2.79962,46.33166,rue André Charvillat,371
I031090001,"46.14288, 3.2679",3.2679,46.14288,10 rue des Forges,372
I031130002,"46.02249, 3.65276",3.65276,46.02249,Le Galizan,373
I031140001,"46.39466, 3.3454",3.3454,46.39466,La Longelle,374
I031180004,"46.08315, 3.19849",3.19849,46.08315,rue Jules Bertin,375
I031180009,"46.10531, 3.19862",3.19862,46.10531,9 rue du stade,375
I031200002,"46.63422, 3.66778",3.66778,46.63422,Route du Stade,376
I031320002,"46.38162, 3.5945",3.5945,46.38162,Chemin du Stade,377
I031380003,"46.24376861771956, 3.6398622393608098",3.6398622393608098,46.24376861771956,rue des Vignes,48
I031570002,"46.21012, 3.50393",3.50393,46.21012,9 rue des Landelles Z.A. des Landelles,378
I031600001,"46.23678, 3.41938",3.41938,46.23678,,379
I031730001,"46.46859, 3.93521",3.93521,46.46859,rue des Guerruppes,380
I031820001,"46.12181, 3.26208",3.26208,46.12181,"3, route de la Gare",381
I031850005,"46.326479, 2.614962",2.614962,46.326479,80 rue de Nerdre,52
I031850011,"46.36589, 2.5878",2.5878,46.36589,Chemin de Maupertuis,52
I031850015,"46.322334317037246, 2.6004633307456975",2.600463330745697,46.322334317037246,impasse Fournier Sarlovèze,52
I031850016,"46.35363, 2.60436",2.60436,46.35363,1 Rue Champollion,52
I031850017,"46.33091, 2.58827",2.58827,46.33091,rue Jean-Jacques SOULIER,52
I031850039,"46.33384, 2.57636",2.57636,46.33384,14 août 1944,52
I031850041,"46.34049, 2.57775",2.57775,46.34049,rue duport,52
I031860006,"46.31459841925152, 2.9488715529441833",2.948871552944184,46.31459841925152,rue Joliot Curie,53
I244540002,"44.95244, 0.10899",0.10899,44.95244,LE BOURG,382
I244600003,"45.24898, 0.41169",0.41169,45.24898,,383
I244610006,,,,le bourg,384
I244620003,"45.03893, 0.35009",0.35009,45.03893,RUE DES MAURIES,385
I244790004,"45.48617, 0.74318",0.74318,45.48617,Le clos de noujarede,386
I244840004,,,,le bourg - 385 ROUTE DU 8 MAI 1945,387
I245200011,"44.87562, 1.22872",1.22872,44.87562,MANDRAZES,388
I245200015,"44.86284, 1.24031",1.24031,44.86284,,388
I245200017,"44.90792, 1.19702",1.19702,44.90792,,388
I245200020,"44.86204, 1.23891",1.23891,44.86204,la maison blanche,388
I245270002,"45.27561141621828, 0.9176239371299745",0.9176239371299744,45.27561141621828,Place du 14 juillet,389
I245380002,"44.82413, 0.98802",0.98802,44.82413,RUE DES HERONS,390
I245470002,"45.13227, 1.29217",1.29217,45.13227,Avenue Victor Hugo,391
I245470008,"45.13291, 1.28014",1.28014,45.13291,LES PLANTES,391
I245470016,"45.13291, 1.2785",1.2785,45.13291,Les plantes,391
I245500005,"45.13683, 1.07261",1.07261,45.13683,Place Montaigne,392
I245510001,"45.41842, 0.92425",0.92425,45.41842,Parc municipal,393
I245510003,"45.4265, 0.92878",0.92878,45.4265,Avenue Charles de Gaulle,393
I245550001,"45.27036, 1.06261",1.06261,45.27036,Le bourg,394
I245570005,"45.19031, 0.74705",0.74705,45.19031,Avenue Paul Grandon,395
I245570008,"45.19474, 0.77672",0.77672,45.19474,Stade Firmin Daudou,395
I245570014,"45.19471, 0.77565",0.77565,45.19471,Rue Anatole France,395
I245710005,"45.02408, 0.71158",0.71158,45.02408,MOULIN DE RIPAILLE,396
I245850001,"44.63143, 1.07768",1.07768,44.63143,Le colombier,397
I245870005,"44.83394, 1.23528",1.23528,44.83394,Le bastier,398
I250430003,"47.49267, 6.75843",6.75843,47.49267,Rue de Dung,399
I250470019,"47.34781, 6.35067",6.35067,47.34781,rue de la prairie,400
I250560002,"47.25055, 5.99964",5.99964,47.25055,,401
I250560053,"47.22193, 5.98462",5.98462,47.22193,Boulevard Mitterand,401
I250560054,"47.25907, 6.01528",6.01528,47.25907,9 rue des Torcols,401
I250560060,"47.22674, 5.98925",5.98925,47.22674,24 bis rue des vignerons,401
I250560087,"47.25025, 6.00226",6.00226,47.25025,1 chemin de la Baume,401
I250560092,"47.25344, 6.0354",6.0354,47.25344,10 rue Résal,401
I250560093,"47.266, 6.0418",6.0418,47.266,36 rue Chopin,401
I250560094,"47.22912, 6.05353",6.05353,47.22912,les Prés de Vaux,401
I250560100,"47.24734, 5.97331",5.97331,47.24734,11 route de Gray,401
I250560102,"47.25406, 6.05797",6.05797,47.25406,48 chemin du Fort Benoît,401
I250560108,"47.25092, 5.98985",5.98985,47.25092,31 Chemin de l'épitaphe,401
I251050001,"47.11463, 5.85268",5.85268,47.11463,route de la saline,402
I251200002,"47.04905, 6.14828",6.14828,47.04905,les Essarts,403
I251330004,"47.306325, 6.009193",6.009193,47.306325,rue de Bellevue,404
I251390003,"47.01953, 6.43604",6.43604,47.01953,Le Mabot,405
I251470003,"47.218379, 5.892566",5.892566,47.218379,rue des Charmes,406
I251910001,"47.47502, 6.73827",6.73827,47.47502,rue des écoles,407
I251950003,"47.203943, 5.870043",5.870043,47.203943,rue des fins,408
I252020001,"46.87261, 6.18515",6.18515,46.87261,rue de la Tille,409
I252280004,"47.50355, 6.85391",6.85391,47.50355,Rue Louis Pergaud,410
I252300002,"47.4964, 6.83562",6.83562,47.4964,12 rue de l'usine,411
I252590003,"46.853716, 6.158615",6.158615,46.853716,rue du stade,412
I252710005,"47.05251, 6.49024",6.49024,47.05251,rue de la gare,413
I253100001,"47.44049, 6.34286",6.34286,47.44049,,414
I253150004,"47.45451, 6.58941",6.58941,47.45451,chemin des Lumes,415
I253210013,"47.07113, 6.67041",6.67041,47.07113,rue de la cloison la courpée,416
I253340004,"46.946521107994805, 6.112947463989258",6.112947463989258,46.946521107994805,24 rue de champagnole,417
I253560003,"47.24382, 6.78909",6.78909,47.24382,rue Saint Michel,418
I253610005,"46.80481, 6.30613",6.30613,46.80481,chemin du tour du lac,419
I253640004,"47.20601, 6.15094",6.15094,47.20601,rue du stade,420
I253670009,"47.4437, 6.82341",6.82341,47.4437,Rue du breuil et place du 8 mai,421
I253740002,"47.21766, 5.73853",5.73853,47.21766,5 rue de l'Eglise,422
I253750002,"47.16054, 6.07753",6.07753,47.16054,voie du moulin,423
I253880010,"47.49399, 6.82",6.82,47.49399,6 rue du commandant pierre rossel,424
I253880018,"47.50714, 6.78829",6.78829,47.50714,Place du Champ de Foire,424
I253880022,"47.51667, 6.79692",6.79692,47.51667,12 Route d’Hericourt,424
I253880023,"47.51865, 6.78822",6.78822,47.51865,18 Boulevard Victor Hugo,424
I253880024,"47.50197, 6.8043",6.8043,47.50197,24 rue Brossolette,424
I253880027,"47.49401, 6.80977",6.80977,47.49401,rue de courts canton,424
I253950010,"47.23483, 6.07713",6.07713,47.23483,3 rue de la comtesse henriette,425
I254110011,"47.0595, 6.60796",6.60796,47.0595,15 bis rue du collège,426
I254180003,"47.23859, 6.17889",6.17889,47.23859,le Peu,427
I254340033,"47.10169, 6.13467",6.13467,47.10169,7 rue de Lonège,428
I254620032,"46.90393, 6.3372",6.3372,46.90393,rocade Georges Pompidou,429
I254620041,"46.90636, 6.35495",6.35495,46.90636,rue la Fontaine,429
I254630011,"47.39175, 6.77636",6.77636,47.39175,rue du stade,430
I254900003,"47.39149, 6.17484",6.17484,47.39149,les étangs,431
I255050012,"47.47901, 6.36246",6.36246,47.47901,6 route de Cuse,432
I255110003,"47.09422, 6.00417",6.00417,47.09422,Rue des Dames,433
I255120008,"47.16164, 6.728287",6.728287,47.16164,15a Rue Foch,434
I255230002,"47.51191, 6.70146",6.70146,47.51191,14 rue de Saint Julien,435
I255320002,"47.22775, 6.11363",6.11363,47.22775,allée du collège,436
I255390002,"47.47052, 6.85697",6.85697,47.47052,rue des vignottes,437
I255390004,"47.46182, 6.86292",6.86292,47.46182,Place Ambroise Croizat,437
I255470007,"47.51386, 6.84184",6.84184,47.51386,3 Promenade de la rêverie,438
I255600003,"47.27781, 6.08609",6.08609,47.27781,rue du stade,439
I255600005,"47.26861, 6.07195",6.07195,47.26861,Route de Belfort Thise,439
I255780004,"47.15212, 6.35125",6.35125,47.15212,rue de l'hôtel de ville,440
I255800009,"47.46959, 6.82547",6.82547,47.46959,rue des carrières,441
I255800012,"47.45487, 6.83472",6.83472,47.45487,Rue Villedieu,441
I256010002,"47.17705, 6.39055",6.39055,47.17705,rue du stade,442
I256110002,"47.21402, 6.0656",6.0656,47.21402,1 rue des écoles,443
I260020004,"45.239, 4.87574",4.87574,45.239,,444
I260080001,"44.578413736545635, 4.724072813987733",4.724072813987733,44.57841373654564,rue du stade,445
I260090001,"45.24761010076496, 4.80854630470276",4.80854630470276,45.24761010076496,Rue des usines,446
I260380001,"45.024344416775406, 4.924342632293702",4.924342632293702,45.024344416775406,2 Chemin du stade,447
I260490001,"44.9704, 5.07645",5.07645,44.9704,Rue du stade,448
I260570001,"45.037806, 5.058488",5.058488,45.037806,1 Rue de Zamanof,449
I260570016,"45.0202, 5.0352",5.0352,45.0202,Avenue de la 1ère armée,449
I260580003,"44.954118, 4.897102",4.897102,44.954118,118 Chemin du Valentin,450
I260580004,"44.953151, 4.907653",4.907653,44.953151,27 Avenue Jacques Brel,450
I260630015,"44.2706, 5.26917",5.26917,44.2706,Les Tuves,451
I260710002,"45.0614, 4.91444",4.91444,45.0614,Rue de la tuillerie,452
I260830002,"45.2256, 4.95122",4.95122,45.2256,Les mandailles,453
I260880003,"44.9985, 5.09223",5.09223,44.9985,Route du stade,454
I260950001,"44.61357518035716, 4.938566386699677",4.938566386699677,44.61357518035716,95 A Chemin du Bec de Jus,455
I261140006,"44.523, 5.05836",5.05836,44.523,La vieille route,456
I261160005,"44.442110817323226, 4.71077710390091",4.71077710390091,44.442110817323226,Les gres,457
I261180001,"45.3081, 4.92982",4.92982,45.3081,Le village,458
I261290001,"45.0744, 5.17597",5.17597,45.0744,,459
I261480003,"45.25322169016487, 5.030920207500459",5.030920207500459,45.25322169016487,Impasse du Château,460
I261790004,"45.0732, 4.88676",4.88676,45.0732,Les Murailles,461
I261980029,"44.543832, 4.767104",4.767104,44.543832,Route d'Espeluche,462
I261980035,"44.551857, 4.771388",4.771388,44.551857,93 Route de Dieulefit,462
I261980037,"44.5524, 4.753",4.753,44.5524,Chemin des Alexis,462
I261980039,"44.540689, 4.742045",4.742045,44.540689,allée André Nimsgers,462
I262080005,"44.7947, 4.93778",4.93778,44.7947,Chemin du chambe,463
I262130001,"45.291852, 4.991106",4.991106,45.291852,Parc municipal,464
I262160003,"45.19445, 4.90381",4.90381,45.19445,265 route de pré brenier,465
I262200002,"44.3575, 5.13528",5.13528,44.3575,Promenade de la digue,466
I262310002,"45.09919, 5.04005",5.04005,45.09919,Les ducs,467
I262350011,"44.3730119961918, 4.698570370674134",4.698570370674134,44.3730119961918,Avenue Henri Becquerel,468
I262350018,"44.36954148129388, 4.695633351802827",4.695633351802827,44.36954148129388,Boulevard Raoul Dautry,468
I262350019,"44.367975, 4.695361",4.695361,44.367975,Avenue Pierre de Coubertin,468
I262500003,"44.9971, 4.86874",4.86874,44.9971,Rue des loisirs,469
I262710008,"45.00973, 4.84374",4.84374,45.00973,Les marettes,470
I262810005,"45.0639089545094, 5.093887746334077",5.093887746334077,45.0639089545094,St Paul les Romans,471
I262810010,"45.044295, 5.057386",5.057386,45.044295,Côte Garenne,471
I262810023,"45.055919, 5.045556",5.045556,45.055919,avenue de St Donat,471
I262810024,"45.056573, 5.082575",5.082575,45.056573,rue Louis Joseph Gay Lussac,471
I262810044,"45.043848, 5.082541",5.082541,45.043848,Avenue du Vercors,471
I262810045,"45.043865, 5.075149",5.075149,45.043865,Rue Seignebos,471
I262840004,"44.429179, 4.802937",4.802937,44.429179,3 place du stade,472
I263010003,"45.11828528698252, 4.984968602657319",4.984968602657319,45.11828528698252,Route de Saint Bardoux,473
I263070006,"45.0172, 5.29139",5.29139,45.0172,Rue Pasteur,474
I263230001,"45.06726, 5.13558",5.13558,45.06726,Quartier du stade,475
I263240006,"44.3505, 4.77582",4.77582,44.3505,Quartier Miégesolles,476
I263240014,"44.35167277344712, 4.7792109847068796",4.77921098470688,44.35167277344712,Quartier Miégesolles,476
I263250002,"45.2993, 4.81913",4.81913,45.2993,Rue du levant,477
I263300002,"45.29, 4.94898",4.94898,45.29,Route de la Valloire,478
I263320004,"45.179, 4.8569",4.8569,45.179,Rue Moulin,479
I263330009,"45.1752, 4.81958",4.81958,45.1752,Rue Picpus,480
I263330011,"45.19599152407413, 4.816992580890656",4.816992580890656,45.19599152407413,Route Font Barthelas,480
I263330012,"45.1919, 4.81028",4.81028,45.1919,Les îles de Sillons,480
I263450002,"44.28594, 4.83236",4.83236,44.28594,Route de Bollène,481
I263470007,"45.0693, 4.85991",4.85991,45.0693,Rue Jean Monnet,482
I263620041,"44.9113, 4.87928",4.87928,44.9113,rue médecin Général Simond,483
I263620043,"44.91421, 4.913798",4.913798,44.91421,Allée Auguste Jamet,483
I263620079,"44.926762, 4.929174",4.929174,44.926762,48 Chemin des Huguenots,483
I263620080,"44.931185, 4.923252",4.923252,44.931185,21 Rue de Biberach,483
I263620081,"44.936656, 4.928002",4.928002,44.936656,Route de Montélier,483
I263620090,"44.9354, 4.90001",4.90001,44.9354,Avenue Clémenceau,483
I263620093,"44.934724, 4.902751",4.902751,44.934724,Avenue de Romans,483
I263810002,"45.02827, 5.17809",5.17809,45.02827,1 route de Beauregard Le village,484
I270160002,"49.23807, 1.41447",1.41447,49.23807,allée du roi de rome,485
I270160003,"49.24774, 1.43889",1.43889,49.24774,rue lavoisier,485
I270200001,"49.00203, 1.09967",1.09967,49.00203,Rue de la Grosse aulne ARNIERES-SUR-ITON,486
I272840006,"49.28270618431271, 1.771161938086152",1.771161938086152,49.28270618431271,Avenue Victor Hugo,487
I280150006,"48.46365, 1.7658",1.7658,48.46365,23 Rue Jean Jaurès,488
I280180004,"48.19742, 0.88547",0.88547,48.19742,Rue du stade,489
I280210001,"48.36874, 1.33451",1.33451,48.36874,Rue de la Tuilerie,490
I280240007,"48.41306, 1.4797",1.4797,48.41306,Rue Fort Mahon,491
I280350001,"48.38467, 1.55258",1.55258,48.38467,Rue de la piscine,492
I280590001,"48.68621, 1.07051",1.07051,48.68621,Rue de la ferté vidame,493
I280610003,"48.21347161662489, 1.1675977706909182",1.1675977706909182,48.21347161662489,Rue de Mottereau,494
I280700001,"48.4701, 1.49826",1.49826,48.4701,Rue la cité,495
I280700002,"48.46188, 1.50727",1.50727,48.46188,Rue Louis Bleriot,495
I280850020,"48.44006, 1.49798",1.49798,48.44006,Rue Georges Brassens,496
I280850026,"48.45093, 1.5031",1.5031,48.45093,8 rue Jean MONNET,496
I280850028,"48.44633, 1.5234",1.5234,48.44633,Rue des Eparges,496
I280850030,"48.46099, 1.48519",1.48519,48.46099,Route des Grands Prés,496
I280850039,"48.44331, 1.51354",1.51354,48.44331,Rue Raoul BRANDON,496
I280880018,"48.08098, 1.35553",1.35553,48.08098,Place du 1er Bataillon d'Eure et Loir,497
I280880024,"48.07542, 1.35049",1.35049,48.07542,Avenue du Général de Gaulle,497
I280880025,"48.07806, 1.32328",1.32328,48.07806,17 Rue Abel Mérét,497
I280890003,"48.582439484781624, 1.2437868215192882",1.2437868215192882,48.58243948478162,Rue du Chemin de fer,498
I280980003,"48.75086, 1.43077",1.43077,48.75086,Impasse du stade,499
I281030002,"48.00379, 1.23441",1.23441,48.00379,9 Route de Montigny,500
I281160005,"48.44599, 1.23811",1.23811,48.44599,Rue des Canaux,501
I281340003,"48.72307, 1.38412",1.38412,48.72307,Rue Henri Lefebvre,502
I281340013,"48.75292, 1.34863",1.34863,48.75292,3 rue Jean Grosdemouge,502
I281340018,"48.73537, 1.34357",1.34357,48.73537,Rue Pablo Neruda,502
I281340019,"48.73358, 1.36034",1.36034,48.73358,Allée du Général Koenig,502
I281340020,"48.74079, 1.37429",1.37429,48.74079,25 bis Avenue du Général Leclerc,502
I281340025,"48.73893, 1.35469",1.35469,48.73893,Place Louis Armand,502
I281340028,"48.7297, 1.36212",1.36212,48.7297,RUE DE VERNOUILLET,502
I281400006,"48.605759507054614, 1.6715902090072634",1.6715902090072634,48.60575950705461,1 Route de Gallardon,503
I281680004,"48.52664, 1.69781",1.69781,48.52664,Chemin de Paris,504
I281910002,"48.60938, 1.64688",1.64688,48.60938,Chemin des sables,505
I281910004,"48.59964, 1.64049",1.64049,48.59964,30 Rue de la barre,505
I281960002,"48.30294, 1.24735",1.24735,48.30294,5 Rue de Bréhainville,506
I281960006,"48.30835, 1.23907",1.23907,48.30835,34 rue de Courville,506
I281990004,"48.2013701035253, 1.8760335445404055",1.8760335445404053,48.2013701035253,Rue de la tuilerie,507
I282090002,"48.47185, 1.48592",1.48592,48.47185,12 Rue de Josaphat,508
I282140004,"48.46555, 1.01704",1.01704,48.46555,Chemin du Parc,509
I282140006,"48.46904, 1.01578",1.01578,48.46904,Parc du château,509
I282180006,"48.44257, 1.45483",1.45483,48.44257,4 Rue Jean Boudrie,510
I282180008,"48.43449, 1.45303",1.45303,48.43449,1 Impasse des Flandres Dunkerque,510
I282180009,"48.44037, 1.46185",1.46185,48.44037,108 Rue de la République,510
I282200003,"48.41819, 1.47271",1.47271,48.41819,Rue Jean Bouin,511
I282200004,"48.43096, 1.47387",1.47387,48.43096,12 bis Cour Charles BRUNE,511
I282270002,"48.5924089942625, 1.585948168784839",1.585948168784839,48.5924089942625,Rue Jean d'Ayen,512
I282270003,"48.58995862637047, 1.5724404841598938",1.5724404841598938,48.58995862637047,6 Allée du Guereau,512
I282290001,"48.44537, 1.46202",1.46202,48.44537,1 Rue Salvador Allendé,513
I282290005,"48.44553, 1.4657",1.4657,48.44553,39 Rue Henri Dunant,513
I282290010,"48.44894, 1.44939",1.44939,48.44894,4 Rue Jean Perrin,513
I282290012,"48.45576, 1.45383",1.45383,48.45576,1 Rue Roland Buthier,513
I282790007,"48.64245, 1.51846",1.51846,48.64245,Rue péguy,514
I282800004,"48.31617, 0.8243",0.8243,48.31617,Chemin des Houx,515
I282800008,"48.32131, 0.79634",0.79634,48.32131,35 rue du Perche,515
I282800015,"48.31568, 0.81316",0.81316,48.31568,36 Rue des Tanneurs,515
I282980003,"48.58869, 1.5712",1.5712,48.58869,41 rue R. et J. Lefèvre,516
I283500001,"48.43658, 1.3229",1.3229,48.43658,Rue d'Hartencourt HARTENCOURT,517
I283590004,"48.764069, 1.237241",1.237241,48.764069,Avenue du Pré de l'Eglise,518
I283730004,"48.55485, 1.039",1.039,48.55485,Avenue Badouleau,519
I283870004,"48.31235, 0.99738",0.99738,48.31235,Avenue de la gare,520
I283970001,"48.47276, 1.66637",1.66637,48.47276,Route d'Houville-la-Branche,521
I284040008,"48.7347390087772, 1.3326126337051394",1.3326126337051394,48.7347390087772,Boulevard Marcel Pagnol,522
I284040010,"48.72189, 1.35676",1.35676,48.72189,Esplanade du 8 mai,522
I284220004,"48.27712, 1.63016",1.63016,48.27712,Le faux chapitre,523
I284220011,"48.276314, 1.632413",1.632413,48.276314,FAU CHAPITRE,523
I290010007,"48.24572, -4.31266",-4.31266,48.24572,route de kerneyet,524
I290030007,"48.02759, -4.53711",-4.53711,48.02759,Place du Général de Gaulle,525
I290040001,"47.92769, -3.68599",-3.68599,47.92769,Rue de Quimperlé,526
I290040014,"47.93218, -3.69247",-3.69247,47.93218,Route de la Grange,526
I290060007,"47.87392, -4.09272",-4.09272,47.87392,Poulpry,527
I290110009,"48.4274, -4.51426",-4.51426,48.4274,Rue du Kreisker,528
I290150004,"48.49712, -4.50062",-4.50062,48.49712,Créac'h Leué,529
I290190004,"48.37232, -4.54382",-4.54382,48.37232,rue de Kerarbleis,530
I290190068,"48.42057, -4.48945",-4.48945,48.42057,rue saint-vincent de paul,530
I290190081,"48.40148, -4.46275",-4.46275,48.40148,32 rue de quimper,530
I290190083,"48.40822, -4.51668",-4.51668,48.40822,8 rue de rennes,530
I290190085,"48.39936, -4.44822",-4.44822,48.39936,5 rue trois frères vienne,530
I290190095,"48.40928, -4.47971",-4.47971,48.40928,103 rue jules lesven,530
I290190160,"48.3696, -4.5258",-4.5258,48.3696,1 avenue de l'ecole navale,530
I290190207,"48.3778, -4.53157",-4.53157,48.3778,34 rue de la résistance,530
I290190210,"48.38288, -4.54179",-4.54179,48.38288,80 rue de kerourien,530
I290190215,"48.39184, -4.51176",-4.51176,48.39184,rue de Kergrac'h,530
I290190217,"48.39709, -4.52027",-4.52027,48.39709,330 avenue de la libération,530
I290190230,"48.393774, -4.488415",-4.488415,48.393774,11 Avenue Foch,530
I290200004,"48.09615, -4.00064",-4.00064,48.09615,Ty eugène,531
I290200006,"48.09787, -3.99624",-3.99624,48.09787,rue de la boissière,531
I290230008,"48.65811, -3.91376",-3.91376,48.65811,Meneyer,532
I290240003,"48.279, -3.5468",-3.5468,48.279,4 avenue de waldkappel,533
I290260018,"48.19467, -4.0853",-4.0853,48.19467,grand rue,534
I290260020,"48.19179, -4.0817",-4.0817,48.19179,rue de la piscine,534
I290260023,"48.1917, -4.08875",-4.08875,48.1917,rocade de parc bihan,534
I290260030,"48.19813, -4.08621",-4.08621,48.19813,rue marcel milin,534
I290270011,"48.19119, -3.81643",-3.81643,48.19119,rue du gymnase,535
I290270013,"48.1835, -3.81535",-3.81535,48.1835,Pen ar Pont,535
I290270014,"48.1926, -3.81661",-3.81661,48.1926,5 rue du stade,535
I290290001,"48.23617, -3.67236",-3.67236,48.23617,route du stade,536
I290310004,"47.80012, -3.58891",-3.58891,47.80012,4 route de moelan,537
I290320003,"47.89574, -4.0656",-4.0656,47.89574,Rue de la Fontaine,538
I290390034,"47.87921, -3.92505",-3.92505,47.87921,Avenue Robert Jan,539
I290390035,"47.86242, -3.90384",-3.90384,47.86242,Allée de Coubertin,539
I290400003,"48.35632, -4.76547",-4.76547,48.35632,2 impasse john fitzgerald kennedy,540
I290400010,"48.35867, -4.77",-4.77,48.35867,4 rue du général leclerc,540
I290420001,"48.24694, -4.5026",-4.5026,48.24694,allée du stade,541
I290420022,"48.2472, -4.504",-4.504,48.2472,allée du stade,541
I290420027,"48.2506, -4.4903",-4.4903,48.2506,rue nominoë,541
I290420031,"48.3036, -4.5109",-4.5109,48.3036,l'ile longue,541
I290450012,"48.37246, -4.2761",-4.2761,48.37246,Coat Mez,542
I290450013,"48.3973, -4.2802",-4.2802,48.3973,route du stade,542
I290460039,"48.09174, -4.34055",-4.34055,48.09174,2 rue Jules Verne,543
I290460040,"48.082432, -4.317469",-4.317469,48.082432,rue laënnec,543
I290470004,"48.53256, -4.36472",-4.36472,48.53256,Le Coat,544
I290490004,"47.9958, -3.8903",-3.8903,47.9958,Grande Place,545
I290510025,"48.0085, -4.024",-4.024,48.0085,Croas Spern,546
I290530001,"48.2913, -4.18395",-4.18395,48.2913,route de terenez,547
I290550001,"48.55862, -4.33826",-4.33826,48.55862,route de brest,548
I290560007,"48.431, -4.3152",-4.3152,48.431,route de rulan,549
I290580013,"47.90041, -4.02416",-4.02416,47.90041,Hameau de Ker Vihan,550
I290580016,"47.89121, -4.01042",-4.01042,47.89121,Rue de Meerbush,550
I290600004,"47.91096, -4.11813",-4.11813,47.91096,Rue des Sports,551
I290610001,"48.46121, -4.46762",-4.46762,48.46121,14 rue du stade,552
I290610008,"48.45346, -4.45976",-4.45976,48.45346,2 rue du château d'eau,552
I290650001,"48.02017, -4.26329",-4.26329,48.02017,125 rue du stade,553
I290660004,"48.04066, -4.20519",-4.20519,48.04066,rue du stade,554
I290690013,"48.4271, -4.5551",-4.5551,48.4271,Rue Berthelot,555
I290690015,"48.4306, -4.56782",-4.56782,48.4306,Rue Maner,555
I290720003,"47.805, -4.2767",-4.2767,47.805,Avenue de la République,556
I290750004,"48.44672, -4.39802",-4.39802,48.44672,Le Moulin Neuf,557
I290750005,"48.43856, -4.40203",-4.40203,48.43856,80 Rue Commandant Challe,557
I290750006,"48.43618, -4.40731",-4.40731,48.43618,Rue Anne de Bretagne,557
I290750010,"48.41996, -4.45223",-4.45223,48.41996,Kerlaurent,557
I290750012,"48.4383, -4.40817",-4.40817,48.4383,Rue Anne de Bretagne,557
I290750028,"48.4214068, -4.4542699",-4.4542699,48.4214068,Chemin de Kerlaurent,557
I290770010,"48.63816, -4.42543",-4.42543,48.63816,nodeven,558
I290790003,"48.6344, -3.92824",-3.92824,48.6344,Rue du Croas Men,559
I290910003,"48.64262, -4.3537",-4.3537,48.64262,Lanveur,560
I290950004,"48.46847, -4.37236",-4.37236,48.46847,Rue Bian,561
I290970007,"48.491, -4.03995",-4.03995,48.491,rue du stade,562
I291010001,"48.58533, -4.57161",-4.57161,48.58533,Streat Kichen,563
I291050004,"48.51779, -4.07431",-4.07431,48.51779,rue du général mangin,564
I291060003,"48.08851, -4.06277",-4.06277,48.08851,rue du stade,565
I291090008,"48.5454, -4.71205",-4.71205,48.5454,Kersaint,566
I291100002,"48.06808, -3.9126",-3.9126,48.06808,rue de la croix rouge,567
I291120004,"48.47513, -4.75168",-4.75168,48.47513,7 Strat an Aber,568
I291130003,"48.64474, -3.71875",-3.71875,48.64474,rue yves moal,569
I291170002,"48.57597, -4.51629",-4.51629,48.57597,Mézéozen,570
I291170003,"48.56781, -4.51519",-4.51519,48.56781,Rue de Prat Menoc,570
I291200001,"48.293, -4.4566",-4.4566,48.293,rue du poulmic,571
I291240023,"48.58448, -4.31707",-4.31707,48.58448,rue d'arvor,572
I291250001,"48.10047, -3.78245",-3.78245,48.10047,rue du stade,573
I291300002,"48.37025, -4.64162",-4.64162,48.37025,Route de Pen ar Menez,574
I291300003,"48.37116, -4.65464",-4.65464,48.37116,Keriscoualc'h,574
I291330002,"48.67447, -3.63968",-3.63968,48.67447,rue du terrain des sports,575
I291350005,"47.83118, -4.1826",-4.1826,47.83118,rue du Général de Penfeunteunyo,576
I291350006,"47.82709, -4.17274",-4.17274,47.82709,rue Hent ar Poul Glent Vian,576
I291390004,"48.28065, -4.04764",-4.04764,48.28065,route de Saint Rivoal,577
I291400003,"48.3808, -4.3064",-4.3064,48.3808,rue du stade,578
I291450002,"48.04868, -4.42741",-4.42741,48.04868,Bourg de Confort,579
I291470008,"47.90588, -3.57737",-3.57737,47.90588,Route de Saint Thurien,580
I291480005,"48.61787, -4.0347",-4.0347,48.61787,Rue du Ménez,581
I060580003,"43.72861111, 6.78361111",6.78361111,43.72861111,Hameau de Saint Pons,582
I060650002,"43.72916667, 7.17",7.17,43.72916667,Route de Saint Laurent,583
I060670004,"43.78063, 7.45067",7.45067,43.78063,Quartier de Saint Sauveur,584
I060690021,"43.66704, 6.92298",6.92298,43.66704,Route de Saint Vallier,585
I060790015,"43.54365, 6.930863",6.930863,43.54365,Hotel de ville - Quartier Capitou - Boulevard de la République,586
I060800001,"44.03833333, 7.12888889",7.12888889,44.03833333,Le Clot,587
I060830011,"43.80194444, 7.48722222",7.48722222,43.80194444,205 Allées du stade,588
I060830012,"43.78416667, 7.51333333",7.51333333,43.78416667,Avenue de Porte de France,588
I060830013,"43.7775, 7.47777778",7.47777778,43.7775,Corniche des serres de la Madone,588
I060830016,"43.77777778, 7.48527778",7.48527778,43.77777778,353 Avenue du Doyen Lépine,588
I060850008,"43.59027778, 7.00361111",7.00361111,43.59027778,1735 avenue notre-dame de vie,589
I060880022,"43.69027778, 7.19222222",7.19222222,43.69027778,247 Route de Grenoble,590
I060880054,"43.75363, 7.30154",7.30154,43.75363,Chemin de la Lauvette,590
I060880076,"43.7109, 7.2567",7.2567,43.7109,100 BD COMTE DE FALICON NICE,590
I060880109,"43.70074, 7.275871",7.275871,43.70074,4 Boulevard de Cimiez,590
I060880110,"43.74315, 7.21452",7.21452,43.74315,Route de Bellet,590
I060880117,"43.71722222, 7.265",7.265,43.71722222,65 Avenue Valrose,590
I060880128,"43.69205, 7.24605",7.24605,43.69205,178 Rue de France,590
I060880137,"43.71684, 7.24244",7.24244,43.71684,Rue Ernest Lairolle,590
I060880138,"43.7237, 7.25519",7.25519,43.7237,39 Rue Paul Bounin,590
I060880159,,,,163 boulevard rené cassin,590
I060890006,"43.65174, 6.996899",6.996899,43.65174,Domaine de la Tour Chemin de Tourreviste,591
I060900001,"43.59305556, 6.92444444",6.92444444,43.59305556,Chemin de l'Ecluse,592
I060940009,"44.0925, 6.93444444",6.93444444,44.0925,Parc des sports,593
I060940011,"44.09166, 6.93381",6.93381,44.09166,Parc des sports,593
I060940020,,,,33 AVENUE DE VALBERG,593
I060950006,"43.63772, 6.87515",6.87515,43.63772,chemin du stade,594
I061030005,"44.0125, 7.31159",7.31159,44.0125,Quartier le cervagne ROQUEBILLIERE,595
I061040001,"43.76472222, 7.47361111",7.47361111,43.76472222,chemin vallonet,596
I061040006,"43.76138889, 7.47972222",7.47972222,43.76138889,Avenue des genêts,596
I061040007,"43.76111111, 7.45472222",7.45472222,43.76111111,Avenue Georges Duin,596
I061040010,"43.76384750075189, 7.488105297088624",7.488105297088624,43.76384750075189,esplanade du bord de mer,596
I061050001,"43.66638889, 7.04805556",7.04805556,43.66638889,Route de Valbonne,597
I061080003,"43.58583333, 6.94055556",6.94055556,43.58583333,1955 Avenue de la République,598
I061180007,"43.65305556, 6.79305556",6.79305556,43.65305556,Chemin du Stade,599
I061220003,"43.74443, 7.15602",7.15602,43.74443,Route de Gattières ST JEANNET,600
I061230018,"43.70361111, 7.18",7.18,43.70361111,310 allée des agriculteurs,601
I061230035,"43.67361111, 7.19277778",7.19277778,43.67361111,212 Avenue du 11 novembre,601
I061300003,"43.69881, 6.85095",6.85095,43.69881,CHEMIN DES FERRAGES,602
I061360011,"43.87888889, 7.44222222",7.44222222,43.87888889,Stade Emmanuel Donato - Avenue Jean Médecin,603
I061430003,"43.94624, 7.00863",7.00863,43.94624,Avenue Georges Pompidou Quartier Le Clot,604
I061430004,,,,Avenue Georges Pompidou - Le Clot,604
I061490010,"43.73638889, 7.31194444",7.31194444,43.73638889,IMPASSE MICHEO,605
I061500002,"43.73763, 7.39742",7.39742,43.73763,871 Avenue de Cap d'Ail,606
I061520014,"43.62611111, 7.04416667",7.04416667,43.62611111,Parc des Bouillides,607
I061550004,"43.57166667, 7.07861111",7.07861111,43.57166667,176 Avenue des Mimosas,608
I061550009,"43.58055556, 7.05666667",7.05666667,43.58055556,Avenue Henri Pourtalet,608
I061590009,"43.70611111, 7.30305556",7.30305556,43.70611111,8 chemin François FERRY,609
I061610007,"43.66722222, 7.12055556",7.12055556,43.66722222,Place du Général de Gaulle VILLENEUVE LOUBET,610
I061610008,"43.66805556, 7.11916667",7.11916667,43.66805556,8 Square Béranger VILLENEUVE LOUBET,610
I061610009,"43.66073, 7.09625",7.09625,43.66073,Route de Grasse,610
I061610012,"43.6525, 7.12861111",7.12861111,43.6525,897 avenue des plans,610
I061610015,"43.65305556, 7.12805556",7.12805556,43.65305556,Avenue des plans,610
I070050001,"44.55484, 4.60277",4.60277,44.55484,Rybeiras,611
I070070003,"44.94378, 4.73529",4.73529,44.94378,Route de Valence,612
I070100011,"45.25256459014347, 4.673451483249665",4.673451483249665,45.25256459014347,RUE EMILE BOUSCHON,613
I070100013,"45.25289483210145, 4.670358362135709",4.670358362135709,45.25289483210145,avenue Jean Moulin,613
I070100022,"45.249312, 4.683354",4.683354,45.249312,rue léo lagrange,613
I070100023,"45.232113, 4.684014",4.684014,45.232113,RUE PIERRE DE COUBERTIN,613
I070190003,"44.62886373907959, 4.385658502578736",4.385658502578736,44.62886373907959,CHEMIN DU TENNIS,614
I070190004,"44.604719355802835, 4.3972885608673105",4.397288560867311,44.60471935580284,RIPOTIER,614
I070190014,"44.61567, 4.379",4.379,44.61567,MONTARGUES,614
I070420003,"44.38194444, 4.63222222",4.63222222,44.38194444,,615
I070420010,"44.38194444, 4.63222222",4.63222222,44.38194444,Route de St Remeze,615
I070640002,"44.915, 4.4375",4.4375,44.915,Pre-Jalla,616
I070760001,"44.658333, 4.765",4.765,44.658333,Rue du Verger,617
I070780001,"45.25130740205772, 4.70229173169401",4.70229173169401,45.25130740205772,Rue de vernosc,618
I071020012,"44.920760485766685, 4.870207607746125",4.870207607746125,44.920760485766685,Rue Pierre de Coubertin,619
I071100003,"44.4835, 4.235",4.235,44.4835,chemin du stade André Gervais,620
I071290007,"44.98954397993276, 4.586641788482667",4.586641788482667,44.98954397993276,4 Avenue de Tournon,621
I071290010,"44.98314, 4.57455",4.57455,44.98314,Rue Ferdinand Hérold,621
I071520005,"45.03775, 4.83539",4.83539,45.03775,Chemin des Iles,622
I071610003,"44.71053904394617, 4.212288558483125",4.212288558483125,44.71053904394617,250 Rue de la pourceille,623
I071860004,"44.722131, 4.608605",4.608605,44.722131,Z.I. du Lac,624
I071860005,"44.7325, 4.599167",4.599167,44.7325,Av. du Moulin de Madame,624
I071910002,"44.586926, 4.707064",4.707064,44.586926,chemin du stade,625
I071970003,"45.223022, 4.649033",4.649033,45.223022,Route de la chomotte,626
I072010002,"44.446867447123736, 4.3459752202034005",4.3459752202034005,44.446867447123736,quartier des Antalots,627
I072640003,"44.32711, 4.61723",4.61723,44.32711,Quartier du bas fez,628
I072950006,"44.822008, 4.580038",4.580038,44.822008,La Brugière,629
I072960001,"44.5709, 4.39444",4.39444,44.5709,35 chemin de l'ardeche,630
I073170001,"45.222514, 4.776306",4.776306,45.222514,,631
I073190001,"44.550261, 4.689057",4.689057,44.550261,Allée Paul Avon LAPARELLE,632
I073240003,"45.061139, 4.846149",4.846149,45.061139,RUE ROBERT DUMOLARD,633
I073240006,"45.070843, 4.81063",4.81063,45.070843,BD DE MONTGOLFIER,633
I073300016,"44.40566877918545, 4.400740563869477",4.400740563869477,44.40566877918545,67 Rue Simone Veil,634
I073340005,"44.40472222, 4.13416667",4.13416667,44.40472222,Rousselet,635
I073380004,"44.89835325181976, 4.646594524383546",4.646594524383546,44.89835325181976,Avenue Vincent d'Indy,636
I073420006,"45.22776716780061, 4.59506392478943",4.59506392478943,45.22776716780061,Chemin des Prés Peloux,637
I073490004,"44.80452806798141, 4.783996045589448",4.783996045589448,44.80452806798141,4 rue René Cassin,638
I073490007,"44.81104380356715, 4.793753921985627",4.793753921985627,44.81104380356715,22 rue de l'olivette,638
I080280006,"50.10631, 4.75736",4.75736,50.10631,Route Francis Poulenc,639
I080530006,"49.68239, 4.98515",4.98515,49.68239,ROUTE DE LA MONCELLE,640
I080580002,"49.7809, 4.640923",4.640923,49.7809,AERODROME,641
I080790001,"49.68507, 4.76717",4.76717,49.68507,,642
I080900007,"49.63168, 5.17293",5.17293,49.63168,RUE DE FROIDE FONTAINE,643
I081050037,"49.74735, 4.713",4.713,49.74735,84 r du bois fortant,644
I081050087,"49.782425, 4.723777",4.723777,49.782425,92 r des paquis,644
I081070001,"49.53055, 4.25416",4.25416,49.53055,Route de PARGNY,645
I081220004,"50.08945, 4.80152",4.80152,50.08945,Chemin de mission,646
I081220006,"50.09179, 4.80324",4.80324,50.09179,CHEMIN DE MISSION,646
I081450003,"49.66368, 5.04241",5.04241,49.66368,ROUTE DE REMILLY Muret,647
I081850012,"49.98611, 4.70721",4.70721,49.98611,RUE ALBERT THOMAS PROLONGEE,648
I081900001,"50.14305, 4.82645",4.82645,50.14305,RUE BERTHELOT,649
I081900005,"50.13666, 4.83558",4.83558,50.13666,RUE DES ANCIENS COMBATTANTS,649
I082220006,"50.006, 4.70138",4.70138,50.006,ESPACE FRANCOIS MITTERAND,650
I082300001,"49.81033, 4.66954",4.66954,49.81033,ROUTE D ARREUX,651
I082390002,"49.39375, 4.37337",4.37337,49.39375,AVENUE DES SPORTS,652
I083110007,"49.60425, 5.08396",5.08396,49.60425,Rue Tour Saint Jérome,653
I083270006,"49.70516, 4.79801",4.79801,49.70516,Rue de l'escadrille Normandie Niemen,654
I083280011,"49.81933, 4.7583",4.7583,49.81933,RUE DE LORRAINE,655
I083460002,"49.75073, 4.68709",4.68709,49.75073,RUE DE LA POTERIE,656
I083460004,"49.75378, 4.69154",4.69154,49.75378,RUE DU STADE,656
I110760011,"43.31908, 1.93696",1.93696,43.31908,Chemin du Périé,181
I111030006,"42.941, 2.24983",2.24983,42.941,rte des pyrenees,657
I111260001,"43.22172, 2.695",2.695,43.22172,Rue Bernard de Scallis,658
I111320001,"43.1368, 2.70109",2.70109,43.1368,av de l'ancienne gare,659
I111400002,"43.14960497618813, 2.7236384153366093",2.7236384153366093,43.14960497618813,av du clair matin,660
I111460003,"43.18438, 2.48975",2.48975,43.18438,Allée des platanes,661
I111640003,"43.26952, 2.87358",2.87358,43.26952,Chemin de l'Horte l'Horte,662
I111750001,"43.37014, 1.98773",1.98773,43.37014,CHEMIN DU BREIL,663
I111920001,"43.29187, 2.0488",2.0488,43.29187,Rue des écoles,664
I111990002,"43.1884, 2.26439",2.26439,43.1884,Route de Causo,665
I112010002,"43.14442, 2.32455",2.32455,43.14442,RUE DES ROMARINS,666
I112020005,"42.90366, 3.0317",3.0317,42.90366,1 avenue de la caramoun,667
I112020023,"42.84199, 3.03756",3.03756,42.84199,101 rue salvador dali,667
I112030006,"43.19165, 2.76488",2.76488,43.19165,Avenue des genets,668
I112030013,"43.18265, 2.74295",2.74295,43.18265,ZI de Gaujac,668
I112060009,"43.05006, 2.21848",2.21848,43.05006,2 bis avenue fabre d'Eglantine,669
I112060028,"43.06984, 2.21603",2.21603,43.06984,Rue des roseaux,669
I112100001,"43.17418, 2.78383",2.78383,43.17418,rue du mail,670
I112170001,"43.22639, 2.92399",2.92399,43.22639,9 av de narbonne,671
I112210002,"43.41041, 2.29199",2.29199,43.41041,Les Batignés,672
I112440001,"42.74029, 2.30665",2.30665,42.74029,D22,673
I112540002,"43.21705, 2.1861",2.1861,43.21705,Domaine des Carmes Les Carmes,674
I112620006,"43.18665, 3.00193",3.00193,43.18665,Boulevard Frédéric Mistral,675
I112620011,"43.18528, 2.97509",2.97509,43.18528,Rue Alzeau,675
I112620012,"43.14686, 2.97826",2.97826,43.14686,Route de Perpignan,675
I112620023,"43.17424, 2.99431",2.99431,43.17424,rte de perpignan,675
I112620024,"43.17786, 3.00001",3.00001,43.17786,Rue Gay Lussac,675
I112620025,"43.18905, 3.01361",3.01361,43.18905,Rue des vignes baties,675
I112620026,"43.17702, 3.00267",3.00267,43.17702,45 Avenue de Turenne,675
I112620028,"43.18054, 3.02066",3.02066,43.18054,Avenue Pierre de Coubertin,675
I112620029,"43.16372, 3.16531",3.16531,43.16372,Chemin de la Fontaine de Verre  Narbonne plage,675
I112640001,"43.20864, 2.90419",2.90419,43.20864,che de la jasse,676
I112660013,"43.01554, 3.0452",3.0452,43.01554,Rue Alain Colas - Rue Dupleix,677
I112690002,"43.28823, 2.96404",2.96404,43.28823,r du stade,678
I112720002,"43.16908407206938, 2.3883837461471558",2.388383746147156,43.16908407206938,Chemin de Bazalac,679
I112810001,"43.26665, 2.0368",2.0368,43.26665,r du stade,680
I112850008,"43.08665963, 2.95358047",2.95358047,43.08665963,rue des écoles,681
I112880003,"43.24885, 2.26068",2.26068,43.24885,Route de Caux et Sauzens,682
I112950001,"43.05387157202859, 2.9180985689163212",2.918098568916321,43.05387157202859,Rue du Boulodrome,683
I112970001,"43.402, 2.43894",2.43894,43.402,,684
I113030004,"42.91599, 2.04485",2.04485,42.91599,Lac de Fontclaire,685
I113040016,"42.88602, 2.19296",2.19296,42.88602,Avenue F. MITTERAND,686
I113090002,"42.91002, 2.29948",2.29948,42.91002,Les Jendous,687
I113100003,"42.91486, 2.31919",2.31919,42.91486,D14,688
I113150003,"43.28218263386589, 2.58028507232666",2.58028507232666,43.28218263386589,Avenue Georges Clemenceau,689
I113240001,"43.24605, 2.79532",2.79532,43.24605,avenue des Loisirs,690
I113360001,"42.95359, 1.96894",1.96894,42.95359,Rue de la Savonnerie,691
I113440002,"43.09876, 2.3088",2.3088,43.09876,rue du lotissement,692
I113600003,"43.24582, 2.88971",2.88971,43.24582,rue du Stade,693
I113670002,"43.3601, 2.16495",2.16495,43.3601,Lotissement Saint-Jean,694
I113790005,"43.02197, 2.98177",2.98177,43.02197,,695
I113790006,"43.02532, 2.97666",2.97666,43.02532,,695
I113860001,"43.04983, 2.66159",2.66159,43.04983,L'estrade,696
I113970011,"43.20449, 2.44361",2.44361,43.20449,Rue d'anjou,697
I113970013,"43.21022, 2.45203",2.45203,43.21022,50 boulevard du minervois,697
I114040002,"43.26481, 2.28709",2.28709,43.26481,Avenue du Cabardès,698
I114080004,"43.12389, 2.32222",2.32222,43.12389,allée de la condamine,699
I114290005,"43.2541, 2.36364",2.36364,43.2541,avenue de la paix,700
I114300005,"43.29362, 1.92871",1.92871,43.29362,chemin  vieux,701
I114330001,"43.3154, 2.46414",2.46414,43.3154,Avenue du jeu de mail,702
I114370001,"43.23789793254037, 2.2370588779449463",2.2370588779449463,43.23789793254037,imp edith piaf,703
I114410002,"43.20488, 3.07051",3.07051,43.20488,Rue du docteur aude,704
I120130005,"44.52841, 2.23959",2.23959,44.52841,3 AVENUE DU LYCEE,705
I120250001,"43.81853, 2.75242",2.75242,43.81853,route de Combret,706
I120330004,"44.47241, 2.72838",2.72838,44.47241,CENTRE DE BOZOUL,707
I120360005,"44.82576, 2.67419",2.67419,44.82576,brommat,708
I120960005,"44.51988, 2.77235",2.77235,44.51988,PLAINE DE PERSE,191
I121000001,"44.53876, 2.30881",2.30881,44.53876,RUE FRANCOIS MITERRAND,709
I121020003,"44.28925, 2.60234",2.60234,44.28925,FLAVIN,710
I121040001,"44.5075, 2.00742",2.00742,44.5075,LES BARRIERES,711
I121210003,"44.42323, 2.15807",2.15807,44.42323,Le Bourg,712
I121270001,"44.08749, 2.44308",2.44308,44.08749,rue du stade,713
I121380002,"44.46187, 2.46944",2.46944,44.46187,12 Allée de Kervallon,714
I121450029,"44.1077, 3.08339",3.08339,44.1077,1 boulevard Emile Lauret,715
I121450030,"44.09649, 3.07371",3.07371,44.09649,Rue du Rec,715
I121450031,"44.09302, 3.05852",3.05852,44.09302,Impasse Docteur Barsalou,715
I121450035,"44.09333, 3.08026",3.08026,44.09333,Avenue du Languedoc de la Maladrerie,715
I121570005,"44.4008, 2.69891",2.69891,44.4008,GAGE LE HAUT,716
I121640001,"44.84309, 2.66359",2.66359,44.84309,RUE DU STADE,717
I121690002,"44.19859, 2.33874",2.33874,44.19859,place du foirail,718
I121760002,"44.3668, 2.59188",2.59188,44.3668,BOULEVARD DES GLYCINES,719
I121760003,"44.37903, 2.57041",2.57041,44.37903,LES ALBATROS COSTES ROUGES,719
I121760027,"44.370027, 2.575701",2.575701,44.370027,"Boulevard des Balquières, rue de laroque",719
I121830002,"43.92477, 2.54659",2.54659,43.92477,zone de l'Horte,720
I121850007,"44.27804, 2.72634",2.72634,44.27804,place de la rivière,721
I121980006,"44.31685, 2.24502",2.24502,44.31685,route de Prévinquières,722
I122020002,"44.37488, 2.54021",2.54021,44.37488,RUE DES CHARPENTIERS BEL AIR,723
I122020004,"44.35332, 2.56817",2.56817,44.35332,Boulevard du 122è RI,723
I122020005,"44.38177, 2.52488",2.52488,44.38177,Route de Cressensac à Rodez,723
I122020006,"44.3995, 2.56284",2.56284,44.3995,D901 route de vabre commune d'onet le chateau,723
I122020010,"44.3534, 2.56815",2.56815,44.3534,Vallon des sports,723
I122050001,"44.30843, 1.97114",1.97114,44.30843,LES 3 ROUTES,724
I122090002,"44.68228, 2.66818",2.66818,44.68228,LA VERGNE,725
I122280001,"43.97261, 2.7196",2.7196,43.97261,La Planque,726
I122550002,"44.18298, 2.56868",2.56868,44.18298,le bourg,727
I122640004,"44.41196, 2.60445",2.60445,44.41196,ROUTE DE BEZONNES,728
I122680001,"44.60243, 2.48068",2.48068,44.60243,la Borie,729
I122700010,"44.31866, 3.06483",3.06483,44.31866,RUE JEAN MOULIN,730
I122960004,"44.07026, 2.87579",2.87579,44.07026,VIALA DU TARN,731
I123010004,"44.4407, 2.03756",2.03756,44.4407,Route de Salle Corbaties,732
I123050002,"44.54583, 2.22533",2.22533,44.54583,Le Crouzet,733
I130010003,"43.47404, 5.40265",5.40265,43.47404,1955 rue claude nicolas ledoux,734
I130010019,"43.51731, 5.45202",5.45202,43.51731,35 AVENUE JULES FERRY,734
I130010059,"43.52764, 5.42284",5.42284,43.52764,20 avenue marcel pagnol,734
I130010126,"43.512755, 5.451423",5.451423,43.512755,AV GASTON BERGER,734
I130010134,"43.52498267, 5.46189845",5.46189845,43.52498267,avenue des déportés de la résistance aixoise,734
I130010144,"43.505123, 5.408331",5.408331,43.505123,CHEMIN ALBERT GUIGOU LES MILLES,734
I130010148,"43.54722, 5.38834",5.38834,43.54722,135 CHEMIN DE GRANET,734
I130020006,"43.342, 5.4778",5.4778,43.342,Traverse le Pie d'Autry,735
I130040001,"43.67058, 4.631608",4.631608,43.67058,AVENUE DU DOCTEUR JOSEPH IMBERT,736
I130040002,"43.664873, 4.619291",4.619291,43.664873,ROUTE DE PORT ST LOUIS DU RHONE,736
I130040003,"43.685454, 4.613649",4.613649,43.685454,RUE ROBERT MARTIN,736
I130040004,"43.675394, 4.643776",4.643776,43.675394,RUE DR SCHWEITZER,736
I130040005,"43.67948, 4.63899",4.63899,43.67948,RUE TOUR DES JONQUETS,736
I130040006,"43.694336, 4.636418",4.636418,43.694336,RUE VINCENT SCOTTO,736
I130040010,"43.685789, 4.610179",4.610179,43.685789,RUE DE PSKOV QUARTIER DE TRINQUETAILLE,736
I130040011,"43.684163, 4.636785",4.636785,43.684163,RUE PIERRE SEMARD,736
I130040012,"43.669689, 4.632043",4.632043,43.669689,QUARTIER PONT DE CRAU,736
I130040013,"43.65986, 4.700043",4.700043,43.65986,ROUTE D'EYGUIERES,736
I130040027,"43.4131, 4.7313",4.7313,43.4131,SALIN DE GIRAUD,736
I212310057,"47.32384, 4.99703",4.99703,47.32384,2 Chemin de la rentre de la Cras,144
I212310063,"47.33158, 5.07433",5.07433,47.33158,Rue Castelnau,144
I212310065,"47.31125, 5.075",5.075,47.31125,Rue Edgar Faure,144
I212310076,"47.3173, 5.04405",5.04405,47.3173,14 Rue Vauban,144
I212310091,"47.33531, 5.01899",5.01899,47.33531,Boulevard Pompon,144
I212310099,"47.34793, 5.04202",5.04202,47.34793,25 Avenue du Général Touzet du Vigier,144
I212310106,"47.30774, 5.01543",5.01543,47.30774,Rue du Docteur Richet,144
I212310132,"47.34521, 5.05285",5.05285,47.34521,30 Boulevard du Maréchal Joffre,144
I212310182,"47.33622771496037, 5.063814912670099",5.063814912670099,47.33622771496037,4 rue Marius Chanteur,144
I212310183,"47.336971504644936, 5.064465339660392",5.064465339660392,47.336971504644936,6 rue Marius Chanteur,144
I212310184,"47.30371312552587, 5.061561530801639",5.061561530801639,47.30371312552587,15 Rue Ernest Champeaux,144
I212310187,"47.322816406307844, 5.068159882751179",5.068159882751179,47.32281640630784,1 boulevard Maréchal de Lattre de la Tassigny,144
I212510001,"47.21126, 4.52291",4.52291,47.21126,Route de Thoisy,737
I212610001,"47.25259, 5.13954",5.13954,47.25259,Le Temple,738
I212630001,"47.25036, 5.05103",5.05103,47.25036,Route des Essarts Fenay,739
I212770001,"47.528913384837544, 5.3762465715408325",5.3762465715408325,47.52891338483754,rue des Bruyères,740
I212780003,"47.35184, 5.026127",5.026127,47.35184,15 Rue des Paules,741
I212840002,"47.45681, 4.88624",4.88624,47.45681,Rue de Vernot,742
I212920001,"47.239698, 5.227077",5.227077,47.239698,Chemin Guyot,743
I212950002,"47.223543, 4.994161",4.994161,47.223543,Rue des artisans,744
I212950005,"47.223059, 4.992037",4.992037,47.223059,Chemin de Champfranc,744
I213150001,"47.36506, 5.00027",5.00027,47.36506,Rue de Chambertin Hauteville les Dijon,745
I213170001,"47.521858, 5.106273",5.106273,47.521858,Allée des Sous Pires,746
I213200001,"47.28093, 5.18594",5.18594,47.28093,Rue du Général de Gaulle,747
I213340001,"47.08156, 4.56",4.56,47.08156,RD 14 Lacanche,748
I213360002,"47.8386, 4.36766",4.36766,47.8386,Rue du Stade,749
I213390003,"47.3414, 4.87287",4.87287,47.3414,Rue du Colombier,750
I213470002,"46.9946, 4.87294",4.87294,46.9946,Route de Beaune,751
I213510001,"47.25853, 5.28971",5.28971,47.25853,Rue du Breuil Longchamp,752
I213550001,"47.296349, 5.060082",5.060082,47.296349,Impasse Abbé Deblangey,753
I213550004,"47.282799, 5.06059",5.06059,47.282799,Rue du Bief du Moulin,753
I213610002,"47.49328, 5.20843",5.20843,47.49328,Route de Til Châtel,754
I213700001,"47.28197, 5.17384",5.17384,47.28197,Rue du patis,755
I213730001,"47.32259, 4.79435",4.79435,47.32259,Rue du Sercey Malain,756
I213750001,"47.12313, 4.33537",4.33537,47.12313,Chemin de mauregard La Menoise,757
I213900004,"47.27657, 5.019572",5.019572,47.27657,Rue Pierre de Coubertin,758
I213900007,"47.271406, 4.992287",4.992287,47.271406,3 Rue du Rocher,758
I213900008,"47.279265, 4.993749",4.993749,47.279265,Chemin aux vaches,758
I213900014,"47.280332, 5.000926",5.000926,47.280332,Rue Jean-Baptiste Greuze,758
I213910002,"47.43527, 5.09815",5.09815,47.43527,Rue du Stade,759
I214050002,"46.949, 4.84501",4.84501,46.949,Rue des stades,760
I214120001,"46.97537426102795, 4.787528514862061",4.787528514862061,46.97537426102795,RN 74 Meursault,761
I214160001,"47.39899, 5.31291",5.31291,47.39899,Rue de la Tour Mirebeau sur Bèze,762
I214250001,"47.620795, 4.340288",4.340288,47.620795,Rue Saint Roch,763
I214320001,"47.94917, 4.77868",4.77868,47.94917,48 Rue de Potelle,764
I214420001,"47.19351, 4.98047",4.98047,47.19351,Rue d'Epernay,765
I214520001,"47.2816563437605, 5.102476179599763",5.102476179599763,47.2816563437605,Rue de Gaudran,141
I214610001,"46.9517, 4.62885",4.62885,46.9517,Route d'Autun,766
I214640002,"47.131301, 4.949073",4.949073,47.131301,Avenue de Chamboland,767
I214640008,"47.134298, 4.952656",4.952656,47.134298,27 Rue du Dr Louis Legrand,767
I214850001,"47.337614, 4.974122",4.974122,47.337614,13 Rue du Moulin,768
I214960005,"47.30253766918763, 5.420674681663513",5.420674681663513,47.30253766918763,Rue du Stade,769
I214970002,"47.46811, 4.35418",4.35418,47.46811,Allée des Frênes,770
I215010001,"47.26935159444739, 4.548264741897584",4.548264741897584,47.26935159444739,rue Ponsard,771
I215020001,"47.01777, 5.12349",5.12349,47.01777,Place des Ecoles,772
I215050008,"47.38704, 4.30616",4.30616,47.38704,Chemin du lavoir,773
I215150005,"47.30883, 5.11737",5.11737,47.30883,Avenue du 8 mai 1945,774
I215150006,"47.318771, 5.106276",5.106276,47.318771,Rue des Vergers,774
I215190002,"47.7749, 4.8712",4.8712,47.7749,Lac du Docteur Parizot,775
I215190003,"47.78127, 4.85654",4.85654,47.78127,Rue Henri Morat,775
I215310001,"47.42667, 4.10554",4.10554,47.42667,Allée Lorain,776
I215340002,"47.01299, 4.90568",4.90568,47.01299,Route de Seurre,777
I215350001,"47.36916, 5.0858",5.0858,47.36916,Rue du Bas Mont Ruffey les Echirey,778
I215400001,"47.327198, 5.096589",5.096589,47.327198,Rue François Mitterand,779
I215400003,"47.328104, 5.092677",5.092677,47.328104,24 Rue François Mitterand,779
I215450001,"47.86634, 4.54833",4.54833,47.86634,Allée Chavognier Sainte Colombe sur Seine,780
I215550001,"47.39383, 5.14455",5.14455,47.39383,D28 - Rue des Alleux Saint Julien,781
I215580001,"46.98, 4.89637",4.89637,46.98,Rue des Meix et Pavots SAINTE MARIE LA BLANCHE,782
I215640001,"47.11431, 5.06039",5.06039,47.11431,Rue de l'Etang Lamblin,783
I215690001,"47.00427, 4.71531",4.71531,47.00427,Le Haut,784
I215840001,"47.280869, 4.225412",4.225412,47.280869,Rue du Parc des Sports,785
I215850002,"47.21468, 5.08318",5.08318,47.21468,Rue du moulin Le Vernois,786
I215900003,"47.05953, 4.81679",4.81679,47.05953,Rue Joseph de Pesquidoux Savigny les Beaune,787
I215910001,"47.43377631424696, 5.046031528937625",5.046031528937625,47.43377631424696,Rue de Mare,788
I215990002,"47.58521, 5.17941",5.17941,47.58521,Rue du Stade Selongey,789
I216030004,"47.493976, 4.33714",4.33714,47.493976,Rue du Champ de Foire,790
I216030006,"47.49426953665279, 4.348528683185578",4.348528683185578,47.49426953665279,Avenue Pasteur,790
I216030013,"47.49004, 4.344533",4.344533,47.49004,Avenue du Tir,790
I216050001,"47.29361, 5.10867",5.10867,47.29361,Rue Jean Dorain,791
I216060001,"47.07379, 4.89264",4.89264,47.07379,Rue des Trois Noyers Les Terres Blanches,792
I216070005,"47.00499, 5.14312",5.14312,47.00499,Rue de la Raie Mignot,793
I216090001,"47.2061, 5.28461",5.28461,47.2061,Rue des Renardières,794
I216110002,"47.31304, 4.71073",4.71073,47.31304,Avenue de la Brenne Sombernon,795
I216170002,"47.33429, 4.99964",4.99964,47.33429,Chemin des Aiges,796
I216170003,"47.338954, 4.992777",4.992777,47.338954,Rue Gimbscheim,796
I216170004,"47.340467, 5.003072",5.003072,47.340467,Rue des Quétins,796
I216230001,"47.20778822913415, 5.2021604776382455",5.2021604776382455,47.20778822913415,"Rue des Vignes Parcelle ''Le Suchot""",797
I216410001,"47.66171, 4.42573",4.42573,47.66171,Stade La Vierge TOUILLON,798
I216630010,"47.539736, 4.458568",4.458568,47.539736,Rue Gaston Hardy Venarey les laumes,799
I216700002,"47.4369, 4.66829",4.66829,47.4369,Rue du Pâtis,800
I216840002,"47.02439, 4.88837",4.88837,47.02439,Château de Vignolles,801
I216990001,"47.20654, 5.36359",5.36359,47.20654,Route des Prés,802
I217160001,"47.17485, 4.96534",4.96534,47.17485,Allée de Citeaux Vougeot,803
I220080004,"48.40741, -2.10422",-2.10422,48.40741,le louvre,804
I220160006,"48.84513, -3.00169",-3.00169,48.84513,allegoat,805
I220200004,"48.31086, -2.25482",-2.25482,48.31086,rue de plumaugat,806
I220200005,"48.31896, -2.25286",-2.25286,48.31896,Rue du Stade,806
I220200008,"48.32034069300789, -2.261388302067644",-2.261388302067644,48.32034069300789,15 route de lamballe,806
I220250007,"48.4011, -3.43558",-3.43558,48.4011,rue de la verte vallee,807
I220320001,"48.2979, -2.14804",-2.14804,48.2979,rue de dinan,808
I220380001,"48.53953, -2.97484",-2.97484,48.53953,13 rue des écoles,809
I220420002,"48.76991, -3.35146",-3.35146,48.76991,Coatellec,810
I220460003,"48.27313, -2.61736",-2.61736,48.27313,4 rue de la grande clôture,811
I220460035,"48.32989, -2.4884",-2.4884,48.32989,Place de la Mairie,811
I220470006,"48.31591, -3.05782",-3.05782,48.31591,1 rue des ecoles,812
I220490005,,,,rue de la champagne,813
I220500004,"48.46083, -2.05379",-2.05379,48.46083,chemin des cordiers,814
I220500005,"48.45788, -2.05563",-2.05563,48.45788,rue bertrand robidou,814
I220500008,"48.462776720534755, -2.0468437673844164",-2.0468437673844164,48.46277672053476,route de dinard,814
I220560004,"48.37996, -1.98398",-1.98398,48.37996,2 avenue du stade,815
I220670003,"48.56157, -3.1733",-3.1733,48.56157,Kerpaour,816
I220670004,"48.56156, -3.1733",-3.1733,48.56156,Kerpaour,816
I220700004,"48.56166, -3.14423",-3.14423,48.56166,rue des Capucins,817
I220700009,"48.55901, -3.1435",-3.1435,48.55901,58 rue de la Trinité,817
I220790002,"48.38943, -2.68188",-2.68188,48.38943,rue de l'armel,818
I220810001,"48.51574, -2.66609",-2.66609,48.51574,3 rue ollivier provost,819
I220810009,"48.489469048002356, -2.6345729827880864",-2.6345729827880864,48.48946904800236,11 rue morin,819
I221870033,"48.53772, -2.75585",-2.75585,48.53772,rue du Stade,820
I221870041,"48.5405, -2.77626",-2.77626,48.5405,rue des Tourterelles,820
I221890007,"48.44959, -3.12079",-3.12079,48.44959,Toul Ar Hoat,821
I221890009,"48.44751478827394, -3.1177380681037907",-3.1177380681037907,48.44751478827394,Bel Air,821
I221900002,"48.53354, -2.05997",-2.05997,48.53354,rue francois mitterrand,822
I221960001,"48.76587, -3.14253",-3.14253,48.76587,Chemin de Goz Meguereno,823
I221970003,"48.51135, -1.94654",-1.94654,48.51135,rue du val d'orient,824
I221980006,"48.76939, -3.5153",-3.5153,48.76939,rue du collège,825
I222030009,"48.34503, -2.76214",-2.76214,48.34503,rue de la Gare,826
I222030012,"48.33278, -2.82445",-2.82445,48.33278,Belorient,826
I222080004,"48.304810524205095, -2.013818621635437",-2.013818621635437,48.304810524205095,bd de la gare,827
I222090001,"48.57584, -2.14193",-2.14193,48.57584,rue du Chaffaud,828
I222130001,"48.52365, -2.00097",-2.00097,48.52365,rue de la vieille côte,829
I222130002,"48.52352, -2.001",-2.001,48.52352,rue de la vieille cote,829
I222140004,"48.74786, -2.98176",-2.98176,48.74786,Kerguilaven,830
I222150003,"48.49514, -2.8024",-2.8024,48.49514,8 bis rue de la Grande Métairie,831
I222150011,"48.50104, -2.7645",-2.7645,48.50104,1 rue pierre de coubertin,831
I222150019,"48.49619, -2.80303",-2.80303,48.49619,Allée du Haut Champ,831
I222180005,"48.84064, -3.2269",-3.2269,48.84064,rue santez liboubane,832
I222190008,"48.28121, -2.7054",-2.7054,48.28121,rue du stade,833
I222200003,"48.23784, -3.25076",-3.25076,48.23784,route du circuit,834
I222210007,"48.79988, -3.238661",-3.238661,48.79988,rue du stade,835
I222230002,"48.58217, -3.18023",-3.18023,48.58217,rue des sports,836
I222240001,"48.719203845137805, -3.502455353736878",-3.502455353736878,48.719203845137805,1 rue du stade,837
I222250001,"48.54293, -3.13492",-3.13492,48.54293,rue de la poste,838
I222260002,"48.64752, -3.50789",-3.50789,48.64752,7 Rue Anatole le Bras,839
I222260003,"48.67705, -3.50737",-3.50737,48.67705,rue du Clandy,839
I222320001,"48.62965, -2.86903",-2.86903,48.62965,Parc de la Mairie,840
I222340005,"48.50919, -2.92114",-2.92114,48.50919,Le Gaverlay,841
I222370001,"48.53222, -2.26308",-2.26308,48.53222,rue du stade,842
I222510007,"48.57028988947858, -2.811453938484192",-2.811453938484192,48.57028988947858,1 rue pierre de coubertin,843
I222580001,"48.41922, -2.66406",-2.66406,48.41922,rue du stade,844
I222650003,"48.73142666636957, -3.3828395605087285",-3.3828395605087285,48.73142666636957,place de la mairie,845
I222720005,"48.55658, -3.10423",-3.10423,48.55658,4 rue de hent meur,846
I222750001,"48.13677, -2.70931",-2.70931,48.13677,rue pierre rouxel,847
I222780012,"48.51475, -2.75854",-2.75854,48.51475,14 rue  Saint-Benoît,848
I222780039,"48.51583, -2.7825",-2.7825,48.51583,67 Rue Théodule Ribot,848
I222790001,"48.19343, -2.85414",-2.85414,48.19343,rue nationale La croix,849
I222810008,"48.39902, -2.72686",-2.72686,48.39902,Route de Quessoy Venelle des sports,850
I223070005,"48.45179, -2.8175",-2.8175,48.45179,Route de Saint-Anne,851
I223210007,"48.30954, -3.16357",-3.16357,48.30954,17 rue du stade,852
I223240001,"48.78501, -3.44709",-3.44709,48.78501,r de balaneyer,853
I240370013,"44.84404, 0.49499",0.49499,44.84404,Impasse henry paire,854
I240370027,"44.84749, 0.45818",0.45818,44.84749,Rue Armand Got,854
I240370028,"44.84699, 0.49585",0.49585,44.84699,Rue Anatole France,854
I132080056,"43.26622, 5.39345",5.39345,43.26622,122 BOULEVARD MICHELET,214
I132080058,"43.25804, 5.38799",5.38799,43.25804,65 avenue clot bey,214
I132090002,"43.263874, 5.420128",5.420128,43.263874,2 TRAVERSE REGNY,855
I132090003,"43.24232, 5.39039",5.39039,43.24232,RUE JULES RIMET,855
I132090006,"43.25521, 5.40454",5.40454,43.25521,CHEMIN JOSEPH AIGUIER,855
I132090007,"43.25121, 5.40053",5.40053,43.25121,94 RUE JULES ISAAC,855
I132090011,"43.2377, 5.428",5.428,43.2377,163 Avenue de Luminy,855
I132090016,"43.266716, 5.398791",5.398791,43.266716,5 BOULEVARD GUSTAVE GANAY,855
I132090018,"43.24011, 5.39481",5.39481,43.24011,42 Chemin du Roy D'Espagne,855
I132100012,"43.28462, 5.424",5.424,43.28462,282 BOULEVARD MIREILLE LAUZE,856
I132100013,"43.27687, 5.40907",5.40907,43.27687,24 ALFRED CURTEL,856
I132100017,"43.27766, 5.42118",5.42118,43.27766,113 BD ROMAIN ROLLAND,856
I132100021,"43.27989, 5.43465",5.43465,43.27989,88 BD QUEIREL,856
I132110001,"43.29922, 5.48725",5.48725,43.29922,RUE RAYMOND PITTET,857
I132110018,"43.28825, 5.43582",5.43582,43.28825,464 AV MIREILLE LAUZE,857
I132110029,"43.287, 5.46993",5.46993,43.287,47 RUE DES CROTTES,857
I132110033,"43.28456, 5.51105",5.51105,43.28456,3 CHEMIN DU MOUTON,857
I132120008,"43.307228, 5.448451",5.448451,43.307228,RUE DE LA SARRIETTE / Rue de la Sauge,858
I132120009,"43.3085, 5.4468",5.4468,43.3085,TRAVERSE DE LA SARIETTE,858
I132120026,"43.316577, 5.43452",5.43452,43.316577,54 BD DE COMPOSTELLE,858
I132120029,"43.313094, 5.427073",5.427073,43.313094,39 TRAVERSE DE L AIGUILLETTE,858
I132120046,"43.3218, 5.46766",5.46766,43.3218,AVENUE BLACHERE,858
I132130009,"43.32842, 5.41347",5.41347,43.32842,63 BOULEVARD LAVERAN,859
I132130019,"43.33283, 5.43742",5.43742,43.33283,84 AVENUE CROIX ROUGE,859
I132130021,"43.33844, 5.4093",5.4093,43.33844,AVENUE DE L'ESCADRILLE NORMANDIE NIEMEN,859
I132140001,"43.351837, 5.379912",5.379912,43.351837,75 CHEMIN DE FONTAINIEU QUARTIER SAINT JOSEPH,860
I132140022,"43.33191, 5.39419",5.39419,43.33191,TRAVERSE CADE BOULEVARD  JOURDAN PROLONGE,860
I132140027,"43.31893, 5.38777",5.38777,43.31893,33 TRAVERSE DU COUVENT,860
I132140028,"43.33574, 5.37768",5.37768,43.33574,343 BOULEVARD DANIELE CASANOVA,860
I132140035,"43.324026, 5.38774",5.38774,43.324026,101 CHEMIN STE MARTHE,860
I132150002,"43.35205, 5.35517",5.35517,43.35205,88 CHEMIN DE ST LOUIS DU ROVE,861
I132150005,"43.33877, 5.35389",5.35389,43.33877,430 CHEMIN DE LA MADRAGUE VILLE,861
I132150006,"43.34475, 5.35258",5.35258,43.34475,CHEMIN DE LA MADRAGUE VILLE,861
I132150008,"43.37316, 5.36386",5.36386,43.37316,CHEMIN DE LA MARTINE,861
I132150012,"43.36582, 5.35986",5.35986,43.36582,12 RUE  FORTUNE CHAILLAN,861
I132150014,"43.34312, 5.37675",5.37675,43.34312,23 BOULEVARD SIMON BOLIVAR,861
I132160006,"43.36125, 5.32446",5.32446,43.36125,RUE JEAN JACQUES VERNAZZA,862
I140060001,"49.08205063642981, -0.43359160428735777",-0.4335916042873577,49.08205063642981,impasse Pierre Lefèvre,863
I140200007,"49.12224140661692, -0.1686257426172233",-0.1686257426172233,49.12224140661692,Place des Marronniers,864
I140210002,"49.33881, -0.62599",-0.62599,49.33881,17 Rue François Carpentier,865
I140270004,"49.02477, -0.62417",-0.62417,49.02477,La Closeraie,866
I140300001,"49.21017, -0.4306",-0.4306,49.21017,2 Rue Pierre de Coubertin,867
I140470011,"49.27397, -0.72295",-0.72295,49.27397,26 rte de barbeville,868
I140470014,"49.28331, -0.70534",-0.70534,49.28331,BOULEVARD EINDHOVEN,868
I140470015,"49.28969, -0.70457",-0.70457,49.28969,RUE DE LUBBECKE,868
I140470017,"49.28305, -0.71433",-0.71433,49.28305,bd d'eindhoven,868
I140570003,"49.125253379388596, -0.21518665550502195",-0.2151866555050219,49.1252533793886,24 rue du Stade,869
I140680001,"49.244717, -0.337278",-0.337278,49.244717,Route de Mathieu,870
I140760002,"49.23058, -0.30631",-0.30631,49.23058,Avenue François Mitterrand,871
I140790002,"49.33610782028609, 0.028711259310512105",0.0287112593105121,49.33610782028609,r des tennis,872
